[
  {
    "model": "stations.station",
    "pk": 1,
    "fields": {
      "name": "Circle K Castlebar Retail Park",
      "station_type": "petrol",
      "fuel_price": "1.72",
      "latitude": 52.367118,
      "longitude": -9.831612,
      "updated_at": "2025-12-01T12:00:00Z"
    }
  },
  {
    "model": "stations.station",
    "pk": 2,
    "fields": {
      "name": "Top Oil Limerick Main Street",
      "station_type": "petrol",
      "fuel_price": "1.74",
      "latitude": 53.073468,
      "longitude": -10.404459,
      "updated_at": "2025-12-01T12:00:00Z"
    }
  },
  {
    "model": "stations.station",
    "pk": 3,
    "fields": {
      "name": "Circle K Letterkenny Bypass",
      "station_type": "petrol",
      "fuel_price": "1.78",
      "latitude": 54.246918,
      "longitude": -6.899084,
      "updated_at": "2025-12-01T12:00:00Z"
    }
  },
  {
    "model": "stations.station",
    "pk": 4,
    "fields": {
      "name": "Texaco Cavan Road",
      "station_type": "petrol",
      "fuel_price": "1.78",
      "latitude": 54.417641,
      "longitude": -9.726578,
      "updated_at": "2025-12-01T12:00:00Z"
    }
  },
  {
    "model": "stations.station",
    "pk": 5,
    "fields": {
      "name": "Applegreen Arklow Retail Park",
      "station_type": "petrol",
      "fuel_price": "1.77",
      "latitude": 51.797819,
      "longitude": -8.576779,
      "updated_at": "2025-12-01T12:00:00Z"
    }
  },
  {
    "model": "stations.station",
    "pk": 6,
    "fields": {
      "name": "Texaco Cavan Road",
      "station_type": "petrol",
      "fuel_price": "1.89",
      "latitude": 54.30163,
      "longitude": -7.760889,
      "updated_at": "2025-12-01T12:00:00Z"
    }
  },
  {
    "model": "stations.station",
    "pk": 7,
    "fields": {
      "name": "Top Oil Ennis Link Road",
      "station_type": "petrol",
      "fuel_price": "1.82",
      "latitude": 53.857894,
      "longitude": -6.06189,
      "updated_at": "2025-12-01T12:00:00Z"
    }
  },
  {
    "model": "stations.station",
    "pk": 8,
    "fields": {
      "name": "Circle K Mullingar Bypass",
      "station_type": "petrol",
      "fuel_price": "1.87",
      "latitude": 54.474543,
      "longitude": -5.417144,
      "updated_at": "2025-12-01T12:00:00Z"
    }
  },
  {
    "model": "stations.station",
    "pk": 9,
    "fields": {
      "name": "Tesla Supercharger Navan Service Area",
      "station_type": "ev",
      "fuel_price": "0.00",
      "latitude": 53.926381,
      "longitude": -8.655576,
      "updated_at": "2025-12-01T12:00:00Z"
    }
  },
  {
    "model": "stations.station",
    "pk": 10,
    "fields": {
      "name": "Applegreen Mullingar Retail Park",
      "station_type": "petrol",
      "fuel_price": "1.71",
      "latitude": 54.190263,
      "longitude": -6.991881,
      "updated_at": "2025-12-01T12:00:00Z"
    }
  },
  {
    "model": "stations.station",
    "pk": 11,
    "fields": {
      "name": "Top Oil Castlebar Bypass",
      "station_type": "petrol",
      "fuel_price": "1.90",
      "latitude": 52.041976,
      "longitude": -8.579243,
      "updated_at": "2025-12-01T12:00:00Z"
    }
  },
  {
    "model": "stations.station",
    "pk": 12,
    "fields": {
      "name": "Top Oil Bray Link Road",
      "station_type": "petrol",
      "fuel_price": "1.71",
      "latitude": 52.683888,
      "longitude": -6.549403,
      "updated_at": "2025-12-01T12:00:00Z"
    }
  },
  {
    "model": "stations.station",
    "pk": 13,
    "fields": {
      "name": "EasyGo Tralee Retail Park",
      "station_type": "ev",
      "fuel_price": "0.00",
      "latitude": 51.654093,
      "longitude": -5.793429,
      "updated_at": "2025-12-01T12:00:00Z"
    }
  },
  {
    "model": "stations.station",
    "pk": 14,
    "fields": {
      "name": "Emo Kilkenny Bypass",
      "station_type": "petrol",
      "fuel_price": "1.88",
      "latitude": 54.0052,
      "longitude": -8.494801,
      "updated_at": "2025-12-01T12:00:00Z"
    }
  },
  {
    "model": "stations.station",
    "pk": 15,
    "fields": {
      "name": "Texaco Waterford Bypass",
      "station_type": "petrol",
      "fuel_price": "1.85",
      "latitude": 54.362506,
      "longitude": -7.746539,
      "updated_at": "2025-12-01T12:00:00Z"
    }
  },
  {
    "model": "stations.station",
    "pk": 16,
    "fields": {
      "name": "Top Oil Tralee Retail Park",
      "station_type": "petrol",
      "fuel_price": "1.80",
      "latitude": 52.26509,
      "longitude": -5.352854,
      "updated_at": "2025-12-01T12:00:00Z"
    }
  },
  {
    "model": "stations.station",
    "pk": 17,
    "fields": {
      "name": "Circle K Tullamore Road",
      "station_type": "petrol",
      "fuel_price": "1.84",
      "latitude": 51.999837,
      "longitude": -9.724894,
      "updated_at": "2025-12-01T12:00:00Z"
    }
  },
  {
    "model": "stations.station",
    "pk": 18,
    "fields": {
      "name": "Maxol Tralee Main Street",
      "station_type": "petrol",
      "fuel_price": "1.89",
      "latitude": 55.364524,
      "longitude": -7.798023,
      "updated_at": "2025-12-01T12:00:00Z"
    }
  },
  {
    "model": "stations.station",
    "pk": 19,
    "fields": {
      "name": "ESB EV Mullingar Link Road",
      "station_type": "ev",
      "fuel_price": "0.00",
      "latitude": 51.847061,
      "longitude": -5.941404,
      "updated_at": "2025-12-01T12:00:00Z"
    }
  },
  {
    "model": "stations.station",
    "pk": 20,
    "fields": {
      "name": "EasyGo Galway Retail Park",
      "station_type": "ev",
      "fuel_price": "0.00",
      "latitude": 53.124713,
      "longitude": -8.191562,
      "updated_at": "2025-12-01T12:00:00Z"
    }
  },
  {
    "model": "stations.station",
    "pk": 21,
    "fields": {
      "name": "EasyGo Athlone Bypass",
      "station_type": "ev",
      "fuel_price": "0.00",
      "latitude": 53.41565,
      "longitude": -10.004536,
      "updated_at": "2025-12-01T12:00:00Z"
    }
  },
  {
    "model": "stations.station",
    "pk": 22,
    "fields": {
      "name": "Inver Portlaoise Main Street",
      "station_type": "petrol",
      "fuel_price": "1.85",
      "latitude": 53.819791,
      "longitude": -9.762179,
      "updated_at": "2025-12-01T12:00:00Z"
    }
  },
  {
    "model": "stations.station",
    "pk": 23,
    "fields": {
      "name": "Inver Roscommon Main Street",
      "station_type": "petrol",
      "fuel_price": "1.80",
      "latitude": 55.054789,
      "longitude": -7.433509,
      "updated_at": "2025-12-01T12:00:00Z"
    }
  },
  {
    "model": "stations.station",
    "pk": 24,
    "fields": {
      "name": "Texaco Longford Retail Park",
      "station_type": "petrol",
      "fuel_price": "1.81",
      "latitude": 52.345415,
      "longitude": -9.30265,
      "updated_at": "2025-12-01T12:00:00Z"
    }
  },
  {
    "model": "stations.station",
    "pk": 25,
    "fields": {
      "name": "Emo Wexford Road",
      "station_type": "petrol",
      "fuel_price": "1.73",
      "latitude": 55.292158,
      "longitude": -7.779274,
      "updated_at": "2025-12-01T12:00:00Z"
    }
  },
  {
    "model": "stations.station",
    "pk": 26,
    "fields": {
      "name": "Top Oil Drogheda Retail Park",
      "station_type": "petrol",
      "fuel_price": "1.89",
      "latitude": 53.495418,
      "longitude": -7.39358,
      "updated_at": "2025-12-01T12:00:00Z"
    }
  },
  {
    "model": "stations.station",
    "pk": 27,
    "fields": {
      "name": "IONITY Balbriggan Retail Park",
      "station_type": "ev",
      "fuel_price": "0.00",
      "latitude": 52.981979,
      "longitude": -7.053794,
      "updated_at": "2025-12-01T12:00:00Z"
    }
  },
  {
    "model": "stations.station",
    "pk": 28,
    "fields": {
      "name": "Top Oil Naas Road",
      "station_type": "petrol",
      "fuel_price": "1.70",
      "latitude": 52.379143,
      "longitude": -10.225785,
      "updated_at": "2025-12-01T12:00:00Z"
    }
  },
  {
    "model": "stations.station",
    "pk": 29,
    "fields": {
      "name": "Top Oil Bray Road",
      "station_type": "petrol",
      "fuel_price": "1.75",
      "latitude": 51.673262,
      "longitude": -7.265643,
      "updated_at": "2025-12-01T12:00:00Z"
    }
  },
  {
    "model": "stations.station",
    "pk": 30,
    "fields": {
      "name": "EasyGo Limerick Main Street",
      "station_type": "ev",
      "fuel_price": "0.00",
      "latitude": 52.339638,
      "longitude": -7.067936,
      "updated_at": "2025-12-01T12:00:00Z"
    }
  },
  {
    "model": "stations.station",
    "pk": 31,
    "fields": {
      "name": "Applegreen Castlebar Main Street",
      "station_type": "petrol",
      "fuel_price": "1.79",
      "latitude": 53.689084,
      "longitude": -9.291554,
      "updated_at": "2025-12-01T12:00:00Z"
    }
  },
  {
    "model": "stations.station",
    "pk": 32,
    "fields": {
      "name": "Circle K Galway Link Road",
      "station_type": "petrol",
      "fuel_price": "1.79",
      "latitude": 53.109894,
      "longitude": -8.34892,
      "updated_at": "2025-12-01T12:00:00Z"
    }
  },
  {
    "model": "stations.station",
    "pk": 33,
    "fields": {
      "name": "Emo Portlaoise Link Road",
      "station_type": "petrol",
      "fuel_price": "1.77",
      "latitude": 51.782687,
      "longitude": -8.458317,
      "updated_at": "2025-12-01T12:00:00Z"
    }
  },
  {
    "model": "stations.station",
    "pk": 34,
    "fields": {
      "name": "IONITY Dundalk Bypass",
      "station_type": "ev",
      "fuel_price": "0.00",
      "latitude": 53.52978,
      "longitude": -9.828248,
      "updated_at": "2025-12-01T12:00:00Z"
    }
  },
  {
    "model": "stations.station",
    "pk": 35,
    "fields": {
      "name": "Maxol Bray Road",
      "station_type": "petrol",
      "fuel_price": "1.81",
      "latitude": 53.158092,
      "longitude": -6.063758,
      "updated_at": "2025-12-01T12:00:00Z"
    }
  },
  {
    "model": "stations.station",
    "pk": 36,
    "fields": {
      "name": "Top Oil Tuam Road",
      "station_type": "petrol",
      "fuel_price": "1.87",
      "latitude": 55.256295,
      "longitude": -5.724364,
      "updated_at": "2025-12-01T12:00:00Z"
    }
  },
  {
    "model": "stations.station",
    "pk": 37,
    "fields": {
      "name": "Maxol Wexford Bypass",
      "station_type": "petrol",
      "fuel_price": "1.73",
      "latitude": 54.839955,
      "longitude": -5.849248,
      "updated_at": "2025-12-01T12:00:00Z"
    }
  },
  {
    "model": "stations.station",
    "pk": 38,
    "fields": {
      "name": "Maxol Navan Service Area",
      "station_type": "petrol",
      "fuel_price": "1.85",
      "latitude": 52.528144,
      "longitude": -6.923792,
      "updated_at": "2025-12-01T12:00:00Z"
    }
  },
  {
    "model": "stations.station",
    "pk": 39,
    "fields": {
      "name": "Tesla Supercharger Waterford Bypass",
      "station_type": "ev",
      "fuel_price": "0.00",
      "latitude": 52.573864,
      "longitude": -5.503337,
      "updated_at": "2025-12-01T12:00:00Z"
    }
  },
  {
    "model": "stations.station",
    "pk": 40,
    "fields": {
      "name": "Top Oil Cork Link Road",
      "station_type": "petrol",
      "fuel_price": "1.80",
      "latitude": 52.641283,
      "longitude": -10.298257,
      "updated_at": "2025-12-01T12:00:00Z"
    }
  },
  {
    "model": "stations.station",
    "pk": 41,
    "fields": {
      "name": "IONITY Cork Main Street",
      "station_type": "ev",
      "fuel_price": "0.00",
      "latitude": 51.709645,
      "longitude": -9.589994,
      "updated_at": "2025-12-01T12:00:00Z"
    }
  },
  {
    "model": "stations.station",
    "pk": 42,
    "fields": {
      "name": "Emo Tullamore Bypass",
      "station_type": "petrol",
      "fuel_price": "1.81",
      "latitude": 53.001064,
      "longitude": -5.644868,
      "updated_at": "2025-12-01T12:00:00Z"
    }
  },
  {
    "model": "stations.station",
    "pk": 43,
    "fields": {
      "name": "Circle K Killarney Road",
      "station_type": "petrol",
      "fuel_price": "1.80",
      "latitude": 53.062707,
      "longitude": -7.513231,
      "updated_at": "2025-12-01T12:00:00Z"
    }
  },
  {
    "model": "stations.station",
    "pk": 44,
    "fields": {
      "name": "IONITY Mullingar Link Road",
      "station_type": "ev",
      "fuel_price": "0.00",
      "latitude": 52.643594,
      "longitude": -9.173492,
      "updated_at": "2025-12-01T12:00:00Z"
    }
  },
  {
    "model": "stations.station",
    "pk": 45,
    "fields": {
      "name": "Emo Ennis Service Area",
      "station_type": "petrol",
      "fuel_price": "1.71",
      "latitude": 52.651547,
      "longitude": -6.635267,
      "updated_at": "2025-12-01T12:00:00Z"
    }
  },
  {
    "model": "stations.station",
    "pk": 46,
    "fields": {
      "name": "Top Oil Galway Road",
      "station_type": "petrol",
      "fuel_price": "1.73",
      "latitude": 53.535161,
      "longitude": -7.919282,
      "updated_at": "2025-12-01T12:00:00Z"
    }
  },
  {
    "model": "stations.station",
    "pk": 47,
    "fields": {
      "name": "Circle K Longford Bypass",
      "station_type": "petrol",
      "fuel_price": "1.87",
      "latitude": 52.864413,
      "longitude": -9.736562,
      "updated_at": "2025-12-01T12:00:00Z"
    }
  },
  {
    "model": "stations.station",
    "pk": 48,
    "fields": {
      "name": "Top Oil Cavan Link Road",
      "station_type": "petrol",
      "fuel_price": "1.81",
      "latitude": 53.500473,
      "longitude": -7.073754,
      "updated_at": "2025-12-01T12:00:00Z"
    }
  },
  {
    "model": "stations.station",
    "pk": 49,
    "fields": {
      "name": "ESB EV Longford Bypass",
      "station_type": "ev",
      "fuel_price": "0.00",
      "latitude": 52.445219,
      "longitude": -5.9157,
      "updated_at": "2025-12-01T12:00:00Z"
    }
  },
  {
    "model": "stations.station",
    "pk": 50,
    "fields": {
      "name": "Applegreen Navan Retail Park",
      "station_type": "petrol",
      "fuel_price": "1.74",
      "latitude": 53.803271,
      "longitude": -6.814064,
      "updated_at": "2025-12-01T12:00:00Z"
    }
  },
  {
    "model": "stations.station",
    "pk": 51,
    "fields": {
      "name": "Texaco Athlone Service Area",
      "station_type": "petrol",
      "fuel_price": "1.71",
      "latitude": 52.391974,
      "longitude": -5.81941,
      "updated_at": "2025-12-01T12:00:00Z"
    }
  },
  {
    "model": "stations.station",
    "pk": 52,
    "fields": {
      "name": "Inver Navan Road",
      "station_type": "petrol",
      "fuel_price": "1.83",
      "latitude": 51.404147,
      "longitude": -6.534758,
      "updated_at": "2025-12-01T12:00:00Z"
    }
  },
  {
    "model": "stations.station",
    "pk": 53,
    "fields": {
      "name": "Emo Naas Main Street",
      "station_type": "petrol",
      "fuel_price": "1.72",
      "latitude": 54.205613,
      "longitude": -7.632066,
      "updated_at": "2025-12-01T12:00:00Z"
    }
  },
  {
    "model": "stations.station",
    "pk": 54,
    "fields": {
      "name": "IONITY Letterkenny Road",
      "station_type": "ev",
      "fuel_price": "0.00",
      "latitude": 54.720034,
      "longitude": -7.5193,
      "updated_at": "2025-12-01T12:00:00Z"
    }
  },
  {
    "model": "stations.station",
    "pk": 55,
    "fields": {
      "name": "Applegreen Cork Retail Park",
      "station_type": "petrol",
      "fuel_price": "1.89",
      "latitude": 52.84496,
      "longitude": -5.689281,
      "updated_at": "2025-12-01T12:00:00Z"
    }
  },
  {
    "model": "stations.station",
    "pk": 56,
    "fields": {
      "name": "Texaco Dundalk Link Road",
      "station_type": "petrol",
      "fuel_price": "1.86",
      "latitude": 52.385624,
      "longitude": -10.023417,
      "updated_at": "2025-12-01T12:00:00Z"
    }
  },
  {
    "model": "stations.station",
    "pk": 57,
    "fields": {
      "name": "Tesla Supercharger Killarney Link Road",
      "station_type": "ev",
      "fuel_price": "0.00",
      "latitude": 52.006668,
      "longitude": -5.706021,
      "updated_at": "2025-12-01T12:00:00Z"
    }
  },
  {
    "model": "stations.station",
    "pk": 58,
    "fields": {
      "name": "IONITY Longford Service Area",
      "station_type": "ev",
      "fuel_price": "0.00",
      "latitude": 51.488898,
      "longitude": -6.715133,
      "updated_at": "2025-12-01T12:00:00Z"
    }
  },
  {
    "model": "stations.station",
    "pk": 59,
    "fields": {
      "name": "Maxol Cavan Link Road",
      "station_type": "petrol",
      "fuel_price": "1.75",
      "latitude": 54.837615,
      "longitude": -6.327889,
      "updated_at": "2025-12-01T12:00:00Z"
    }
  },
  {
    "model": "stations.station",
    "pk": 60,
    "fields": {
      "name": "ESB EV Tralee Road",
      "station_type": "ev",
      "fuel_price": "0.00",
      "latitude": 54.815787,
      "longitude": -9.398896,
      "updated_at": "2025-12-01T12:00:00Z"
    }
  },
  {
    "model": "stations.station",
    "pk": 61,
    "fields": {
      "name": "Tesla Supercharger Sligo Retail Park",
      "station_type": "ev",
      "fuel_price": "0.00",
      "latitude": 54.66394,
      "longitude": -6.011694,
      "updated_at": "2025-12-01T12:00:00Z"
    }
  },
  {
    "model": "stations.station",
    "pk": 62,
    "fields": {
      "name": "Emo Dundalk Service Area",
      "station_type": "petrol",
      "fuel_price": "1.89",
      "latitude": 52.699765,
      "longitude": -6.048078,
      "updated_at": "2025-12-01T12:00:00Z"
    }
  },
  {
    "model": "stations.station",
    "pk": 63,
    "fields": {
      "name": "Emo Athlone Service Area",
      "station_type": "petrol",
      "fuel_price": "1.77",
      "latitude": 54.101277,
      "longitude": -6.156089,
      "updated_at": "2025-12-01T12:00:00Z"
    }
  },
  {
    "model": "stations.station",
    "pk": 64,
    "fields": {
      "name": "Texaco Drogheda Main Street",
      "station_type": "petrol",
      "fuel_price": "1.72",
      "latitude": 55.230512,
      "longitude": -9.174266,
      "updated_at": "2025-12-01T12:00:00Z"
    }
  },
  {
    "model": "stations.station",
    "pk": 65,
    "fields": {
      "name": "Emo Cavan Retail Park",
      "station_type": "petrol",
      "fuel_price": "1.72",
      "latitude": 53.131212,
      "longitude": -5.422289,
      "updated_at": "2025-12-01T12:00:00Z"
    }
  },
  {
    "model": "stations.station",
    "pk": 66,
    "fields": {
      "name": "IONITY Navan Road",
      "station_type": "ev",
      "fuel_price": "0.00",
      "latitude": 54.218053,
      "longitude": -10.551172,
      "updated_at": "2025-12-01T12:00:00Z"
    }
  },
  {
    "model": "stations.station",
    "pk": 67,
    "fields": {
      "name": "IONITY Sligo Service Area",
      "station_type": "ev",
      "fuel_price": "0.00",
      "latitude": 51.669196,
      "longitude": -7.092679,
      "updated_at": "2025-12-01T12:00:00Z"
    }
  },
  {
    "model": "stations.station",
    "pk": 68,
    "fields": {
      "name": "Texaco Mullingar Road",
      "station_type": "petrol",
      "fuel_price": "1.76",
      "latitude": 54.26182,
      "longitude": -8.992318,
      "updated_at": "2025-12-01T12:00:00Z"
    }
  },
  {
    "model": "stations.station",
    "pk": 69,
    "fields": {
      "name": "Maxol Balbriggan Retail Park",
      "station_type": "petrol",
      "fuel_price": "1.83",
      "latitude": 53.602106,
      "longitude": -9.558595,
      "updated_at": "2025-12-01T12:00:00Z"
    }
  },
  {
    "model": "stations.station",
    "pk": 70,
    "fields": {
      "name": "Emo Longford Bypass",
      "station_type": "petrol",
      "fuel_price": "1.81",
      "latitude": 53.845905,
      "longitude": -8.989042,
      "updated_at": "2025-12-01T12:00:00Z"
    }
  },
  {
    "model": "stations.station",
    "pk": 71,
    "fields": {
      "name": "Texaco Dundalk Service Area",
      "station_type": "petrol",
      "fuel_price": "1.76",
      "latitude": 54.525178,
      "longitude": -7.393227,
      "updated_at": "2025-12-01T12:00:00Z"
    }
  },
  {
    "model": "stations.station",
    "pk": 72,
    "fields": {
      "name": "Emo Dundalk Main Street",
      "station_type": "petrol",
      "fuel_price": "1.86",
      "latitude": 53.278013,
      "longitude": -5.855836,
      "updated_at": "2025-12-01T12:00:00Z"
    }
  },
  {
    "model": "stations.station",
    "pk": 73,
    "fields": {
      "name": "Circle K Ennis Main Street",
      "station_type": "petrol",
      "fuel_price": "1.72",
      "latitude": 54.038777,
      "longitude": -7.327459,
      "updated_at": "2025-12-01T12:00:00Z"
    }
  },
  {
    "model": "stations.station",
    "pk": 74,
    "fields": {
      "name": "IONITY Mullingar Retail Park",
      "station_type": "ev",
      "fuel_price": "0.00",
      "latitude": 52.286316,
      "longitude": -9.520542,
      "updated_at": "2025-12-01T12:00:00Z"
    }
  },
  {
    "model": "stations.station",
    "pk": 75,
    "fields": {
      "name": "Applegreen Wexford Main Street",
      "station_type": "petrol",
      "fuel_price": "1.78",
      "latitude": 54.780453,
      "longitude": -10.179837,
      "updated_at": "2025-12-01T12:00:00Z"
    }
  },
  {
    "model": "stations.station",
    "pk": 76,
    "fields": {
      "name": "Applegreen Balbriggan Link Road",
      "station_type": "petrol",
      "fuel_price": "1.73",
      "latitude": 52.922074,
      "longitude": -8.473812,
      "updated_at": "2025-12-01T12:00:00Z"
    }
  },
  {
    "model": "stations.station",
    "pk": 77,
    "fields": {
      "name": "Inver Tullamore Road",
      "station_type": "petrol",
      "fuel_price": "1.86",
      "latitude": 54.495897,
      "longitude": -9.417649,
      "updated_at": "2025-12-01T12:00:00Z"
    }
  },
  {
    "model": "stations.station",
    "pk": 78,
    "fields": {
      "name": "Maxol Cork Main Street",
      "station_type": "petrol",
      "fuel_price": "1.79",
      "latitude": 52.384301,
      "longitude": -6.131684,
      "updated_at": "2025-12-01T12:00:00Z"
    }
  },
  {
    "model": "stations.station",
    "pk": 79,
    "fields": {
      "name": "EasyGo Arklow Service Area",
      "station_type": "ev",
      "fuel_price": "0.00",
      "latitude": 53.834483,
      "longitude": -6.80539,
      "updated_at": "2025-12-01T12:00:00Z"
    }
  },
  {
    "model": "stations.station",
    "pk": 80,
    "fields": {
      "name": "Inver Roscommon Main Street",
      "station_type": "petrol",
      "fuel_price": "1.87",
      "latitude": 53.169195,
      "longitude": -9.729196,
      "updated_at": "2025-12-01T12:00:00Z"
    }
  },
  {
    "model": "stations.station",
    "pk": 81,
    "fields": {
      "name": "Inver Bray Link Road",
      "station_type": "petrol",
      "fuel_price": "1.80",
      "latitude": 52.496472,
      "longitude": -6.500537,
      "updated_at": "2025-12-01T12:00:00Z"
    }
  },
  {
    "model": "stations.station",
    "pk": 82,
    "fields": {
      "name": "Maxol Limerick Link Road",
      "station_type": "petrol",
      "fuel_price": "1.76",
      "latitude": 52.530055,
      "longitude": -9.141647,
      "updated_at": "2025-12-01T12:00:00Z"
    }
  },
  {
    "model": "stations.station",
    "pk": 83,
    "fields": {
      "name": "Applegreen Waterford Bypass",
      "station_type": "petrol",
      "fuel_price": "1.74",
      "latitude": 52.918311,
      "longitude": -9.762357,
      "updated_at": "2025-12-01T12:00:00Z"
    }
  },
  {
    "model": "stations.station",
    "pk": 84,
    "fields": {
      "name": "Texaco Letterkenny Service Area",
      "station_type": "petrol",
      "fuel_price": "1.78",
      "latitude": 53.048939,
      "longitude": -9.480324,
      "updated_at": "2025-12-01T12:00:00Z"
    }
  },
  {
    "model": "stations.station",
    "pk": 85,
    "fields": {
      "name": "ESB EV Tullamore Main Street",
      "station_type": "ev",
      "fuel_price": "0.00",
      "latitude": 52.90772,
      "longitude": -10.529222,
      "updated_at": "2025-12-01T12:00:00Z"
    }
  },
  {
    "model": "stations.station",
    "pk": 86,
    "fields": {
      "name": "Inver Tralee Service Area",
      "station_type": "petrol",
      "fuel_price": "1.86",
      "latitude": 53.5375,
      "longitude": -6.72521,
      "updated_at": "2025-12-01T12:00:00Z"
    }
  },
  {
    "model": "stations.station",
    "pk": 87,
    "fields": {
      "name": "Tesla Supercharger Bray Retail Park",
      "station_type": "ev",
      "fuel_price": "0.00",
      "latitude": 53.128986,
      "longitude": -10.40849,
      "updated_at": "2025-12-01T12:00:00Z"
    }
  },
  {
    "model": "stations.station",
    "pk": 88,
    "fields": {
      "name": "Emo Cavan Service Area",
      "station_type": "petrol",
      "fuel_price": "1.88",
      "latitude": 54.279484,
      "longitude": -6.17256,
      "updated_at": "2025-12-01T12:00:00Z"
    }
  },
  {
    "model": "stations.station",
    "pk": 89,
    "fields": {
      "name": "ESB EV Roscommon Service Area",
      "station_type": "ev",
      "fuel_price": "0.00",
      "latitude": 53.751652,
      "longitude": -7.099141,
      "updated_at": "2025-12-01T12:00:00Z"
    }
  },
  {
    "model": "stations.station",
    "pk": 90,
    "fields": {
      "name": "Maxol Waterford Service Area",
      "station_type": "petrol",
      "fuel_price": "1.77",
      "latitude": 52.115099,
      "longitude": -9.201984,
      "updated_at": "2025-12-01T12:00:00Z"
    }
  },
  {
    "model": "stations.station",
    "pk": 91,
    "fields": {
      "name": "Texaco Arklow Service Area",
      "station_type": "petrol",
      "fuel_price": "1.78",
      "latitude": 52.500244,
      "longitude": -5.594714,
      "updated_at": "2025-12-01T12:00:00Z"
    }
  },
  {
    "model": "stations.station",
    "pk": 92,
    "fields": {
      "name": "Tesla Supercharger Dublin Link Road",
      "station_type": "ev",
      "fuel_price": "0.00",
      "latitude": 53.542282,
      "longitude": -5.340481,
      "updated_at": "2025-12-01T12:00:00Z"
    }
  },
  {
    "model": "stations.station",
    "pk": 93,
    "fields": {
      "name": "Emo Limerick Link Road",
      "station_type": "petrol",
      "fuel_price": "1.75",
      "latitude": 51.55063,
      "longitude": -10.398023,
      "updated_at": "2025-12-01T12:00:00Z"
    }
  },
  {
    "model": "stations.station",
    "pk": 94,
    "fields": {
      "name": "IONITY Bray Bypass",
      "station_type": "ev",
      "fuel_price": "0.00",
      "latitude": 53.279509,
      "longitude": -9.962887,
      "updated_at": "2025-12-01T12:00:00Z"
    }
  },
  {
    "model": "stations.station",
    "pk": 95,
    "fields": {
      "name": "Tesla Supercharger Balbriggan Retail Park",
      "station_type": "ev",
      "fuel_price": "0.00",
      "latitude": 54.449923,
      "longitude": -9.684141,
      "updated_at": "2025-12-01T12:00:00Z"
    }
  },
  {
    "model": "stations.station",
    "pk": 96,
    "fields": {
      "name": "Emo Balbriggan Road",
      "station_type": "petrol",
      "fuel_price": "1.76",
      "latitude": 54.49339,
      "longitude": -9.705142,
      "updated_at": "2025-12-01T12:00:00Z"
    }
  },
  {
    "model": "stations.station",
    "pk": 97,
    "fields": {
      "name": "Texaco Clonmel Link Road",
      "station_type": "petrol",
      "fuel_price": "1.89",
      "latitude": 55.013024,
      "longitude": -8.600898,
      "updated_at": "2025-12-01T12:00:00Z"
    }
  },
  {
    "model": "stations.station",
    "pk": 98,
    "fields": {
      "name": "Top Oil Balbriggan Link Road",
      "station_type": "petrol",
      "fuel_price": "1.76",
      "latitude": 52.358969,
      "longitude": -6.920653,
      "updated_at": "2025-12-01T12:00:00Z"
    }
  },
  {
    "model": "stations.station",
    "pk": 99,
    "fields": {
      "name": "Inver Galway Main Street",
      "station_type": "petrol",
      "fuel_price": "1.79",
      "latitude": 54.512715,
      "longitude": -8.747596,
      "updated_at": "2025-12-01T12:00:00Z"
    }
  },
  {
    "model": "stations.station",
    "pk": 100,
    "fields": {
      "name": "Top Oil Portlaoise Retail Park",
      "station_type": "petrol",
      "fuel_price": "1.80",
      "latitude": 51.440482,
      "longitude": -8.367293,
      "updated_at": "2025-12-01T12:00:00Z"
    }
  },
  {
    "model": "stations.station",
    "pk": 101,
    "fields": {
      "name": "Texaco Portlaoise Service Area",
      "station_type": "petrol",
      "fuel_price": "1.85",
      "latitude": 54.212161,
      "longitude": -8.286757,
      "updated_at": "2025-12-01T12:00:00Z"
    }
  },
  {
    "model": "stations.station",
    "pk": 102,
    "fields": {
      "name": "EasyGo Killarney Main Street",
      "station_type": "ev",
      "fuel_price": "0.00",
      "latitude": 54.480819,
      "longitude": -8.133359,
      "updated_at": "2025-12-01T12:00:00Z"
    }
  },
  {
    "model": "stations.station",
    "pk": 103,
    "fields": {
      "name": "EasyGo Kilkenny Bypass",
      "station_type": "ev",
      "fuel_price": "0.00",
      "latitude": 54.704617,
      "longitude": -10.10762,
      "updated_at": "2025-12-01T12:00:00Z"
    }
  },
  {
    "model": "stations.station",
    "pk": 104,
    "fields": {
      "name": "IONITY Arklow Service Area",
      "station_type": "ev",
      "fuel_price": "0.00",
      "latitude": 53.6637,
      "longitude": -7.072056,
      "updated_at": "2025-12-01T12:00:00Z"
    }
  },
  {
    "model": "stations.station",
    "pk": 105,
    "fields": {
      "name": "Maxol Tullamore Retail Park",
      "station_type": "petrol",
      "fuel_price": "1.86",
      "latitude": 52.115541,
      "longitude": -9.452734,
      "updated_at": "2025-12-01T12:00:00Z"
    }
  },
  {
    "model": "stations.station",
    "pk": 106,
    "fields": {
      "name": "Top Oil Balbriggan Retail Park",
      "station_type": "petrol",
      "fuel_price": "1.74",
      "latitude": 53.607606,
      "longitude": -7.863206,
      "updated_at": "2025-12-01T12:00:00Z"
    }
  },
  {
    "model": "stations.station",
    "pk": 107,
    "fields": {
      "name": "Maxol Wexford Main Street",
      "station_type": "petrol",
      "fuel_price": "1.83",
      "latitude": 54.415077,
      "longitude": -6.955019,
      "updated_at": "2025-12-01T12:00:00Z"
    }
  },
  {
    "model": "stations.station",
    "pk": 108,
    "fields": {
      "name": "Inver Dublin Road",
      "station_type": "petrol",
      "fuel_price": "1.75",
      "latitude": 52.564,
      "longitude": -8.449026,
      "updated_at": "2025-12-01T12:00:00Z"
    }
  },
  {
    "model": "stations.station",
    "pk": 109,
    "fields": {
      "name": "Texaco Wexford Main Street",
      "station_type": "petrol",
      "fuel_price": "1.85",
      "latitude": 53.508379,
      "longitude": -8.33887,
      "updated_at": "2025-12-01T12:00:00Z"
    }
  },
  {
    "model": "stations.station",
    "pk": 110,
    "fields": {
      "name": "Emo Naas Retail Park",
      "station_type": "petrol",
      "fuel_price": "1.84",
      "latitude": 52.613426,
      "longitude": -9.356591,
      "updated_at": "2025-12-01T12:00:00Z"
    }
  },
  {
    "model": "stations.station",
    "pk": 111,
    "fields": {
      "name": "Emo Letterkenny Link Road",
      "station_type": "petrol",
      "fuel_price": "1.80",
      "latitude": 52.128748,
      "longitude": -9.430472,
      "updated_at": "2025-12-01T12:00:00Z"
    }
  },
  {
    "model": "stations.station",
    "pk": 112,
    "fields": {
      "name": "Inver Athlone Main Street",
      "station_type": "petrol",
      "fuel_price": "1.74",
      "latitude": 52.519165,
      "longitude": -10.035254,
      "updated_at": "2025-12-01T12:00:00Z"
    }
  },
  {
    "model": "stations.station",
    "pk": 113,
    "fields": {
      "name": "Applegreen Ennis Road",
      "station_type": "petrol",
      "fuel_price": "1.71",
      "latitude": 54.214994,
      "longitude": -9.899237,
      "updated_at": "2025-12-01T12:00:00Z"
    }
  },
  {
    "model": "stations.station",
    "pk": 114,
    "fields": {
      "name": "Texaco Balbriggan Bypass",
      "station_type": "petrol",
      "fuel_price": "1.72",
      "latitude": 53.9351,
      "longitude": -6.630425,
      "updated_at": "2025-12-01T12:00:00Z"
    }
  },
  {
    "model": "stations.station",
    "pk": 115,
    "fields": {
      "name": "Texaco Wexford Service Area",
      "station_type": "petrol",
      "fuel_price": "1.71",
      "latitude": 53.147471,
      "longitude": -9.597622,
      "updated_at": "2025-12-01T12:00:00Z"
    }
  },
  {
    "model": "stations.station",
    "pk": 116,
    "fields": {
      "name": "Tesla Supercharger Galway Road",
      "station_type": "ev",
      "fuel_price": "0.00",
      "latitude": 52.988823,
      "longitude": -10.173291,
      "updated_at": "2025-12-01T12:00:00Z"
    }
  },
  {
    "model": "stations.station",
    "pk": 117,
    "fields": {
      "name": "Circle K Waterford Bypass",
      "station_type": "petrol",
      "fuel_price": "1.72",
      "latitude": 54.626457,
      "longitude": -5.605564,
      "updated_at": "2025-12-01T12:00:00Z"
    }
  },
  {
    "model": "stations.station",
    "pk": 118,
    "fields": {
      "name": "Top Oil Arklow Service Area",
      "station_type": "petrol",
      "fuel_price": "1.75",
      "latitude": 53.809207,
      "longitude": -6.432333,
      "updated_at": "2025-12-01T12:00:00Z"
    }
  },
  {
    "model": "stations.station",
    "pk": 119,
    "fields": {
      "name": "Maxol Roscommon Service Area",
      "station_type": "petrol",
      "fuel_price": "1.79",
      "latitude": 52.576439,
      "longitude": -7.487899,
      "updated_at": "2025-12-01T12:00:00Z"
    }
  },
  {
    "model": "stations.station",
    "pk": 120,
    "fields": {
      "name": "Circle K Killarney Link Road",
      "station_type": "petrol",
      "fuel_price": "1.83",
      "latitude": 51.785942,
      "longitude": -6.578512,
      "updated_at": "2025-12-01T12:00:00Z"
    }
  },
  {
    "model": "stations.station",
    "pk": 121,
    "fields": {
      "name": "Circle K Drogheda Bypass",
      "station_type": "petrol",
      "fuel_price": "1.70",
      "latitude": 52.083516,
      "longitude": -10.168161,
      "updated_at": "2025-12-01T12:00:00Z"
    }
  },
  {
    "model": "stations.station",
    "pk": 122,
    "fields": {
      "name": "Top Oil Wexford Retail Park",
      "station_type": "petrol",
      "fuel_price": "1.76",
      "latitude": 51.520233,
      "longitude": -9.056092,
      "updated_at": "2025-12-01T12:00:00Z"
    }
  },
  {
    "model": "stations.station",
    "pk": 123,
    "fields": {
      "name": "ESB EV Mullingar Bypass",
      "station_type": "ev",
      "fuel_price": "0.00",
      "latitude": 55.076405,
      "longitude": -6.447538,
      "updated_at": "2025-12-01T12:00:00Z"
    }
  },
  {
    "model": "stations.station",
    "pk": 124,
    "fields": {
      "name": "Emo Cavan Bypass",
      "station_type": "petrol",
      "fuel_price": "1.83",
      "latitude": 53.086304,
      "longitude": -7.717384,
      "updated_at": "2025-12-01T12:00:00Z"
    }
  },
  {
    "model": "stations.station",
    "pk": 125,
    "fields": {
      "name": "IONITY Limerick Road",
      "station_type": "ev",
      "fuel_price": "0.00",
      "latitude": 52.052032,
      "longitude": -8.954266,
      "updated_at": "2025-12-01T12:00:00Z"
    }
  },
  {
    "model": "stations.station",
    "pk": 126,
    "fields": {
      "name": "Top Oil Roscommon Retail Park",
      "station_type": "petrol",
      "fuel_price": "1.76",
      "latitude": 53.142222,
      "longitude": -8.113397,
      "updated_at": "2025-12-01T12:00:00Z"
    }
  },
  {
    "model": "stations.station",
    "pk": 127,
    "fields": {
      "name": "Texaco Athlone Main Street",
      "station_type": "petrol",
      "fuel_price": "1.71",
      "latitude": 53.360243,
      "longitude": -10.140094,
      "updated_at": "2025-12-01T12:00:00Z"
    }
  },
  {
    "model": "stations.station",
    "pk": 128,
    "fields": {
      "name": "Texaco Killarney Retail Park",
      "station_type": "petrol",
      "fuel_price": "1.83",
      "latitude": 51.493201,
      "longitude": -9.365015,
      "updated_at": "2025-12-01T12:00:00Z"
    }
  },
  {
    "model": "stations.station",
    "pk": 129,
    "fields": {
      "name": "ESB EV Arklow Link Road",
      "station_type": "ev",
      "fuel_price": "0.00",
      "latitude": 54.667471,
      "longitude": -7.551991,
      "updated_at": "2025-12-01T12:00:00Z"
    }
  },
  {
    "model": "stations.station",
    "pk": 130,
    "fields": {
      "name": "IONITY Wexford Main Street",
      "station_type": "ev",
      "fuel_price": "0.00",
      "latitude": 53.989523,
      "longitude": -5.7781,
      "updated_at": "2025-12-01T12:00:00Z"
    }
  },
  {
    "model": "stations.station",
    "pk": 131,
    "fields": {
      "name": "Top Oil Carlow Link Road",
      "station_type": "petrol",
      "fuel_price": "1.79",
      "latitude": 54.638837,
      "longitude": -5.501532,
      "updated_at": "2025-12-01T12:00:00Z"
    }
  },
  {
    "model": "stations.station",
    "pk": 132,
    "fields": {
      "name": "Texaco Mullingar Road",
      "station_type": "petrol",
      "fuel_price": "1.84",
      "latitude": 54.812355,
      "longitude": -8.838425,
      "updated_at": "2025-12-01T12:00:00Z"
    }
  },
  {
    "model": "stations.station",
    "pk": 133,
    "fields": {
      "name": "Maxol Tuam Main Street",
      "station_type": "petrol",
      "fuel_price": "1.75",
      "latitude": 51.536422,
      "longitude": -10.100328,
      "updated_at": "2025-12-01T12:00:00Z"
    }
  },
  {
    "model": "stations.station",
    "pk": 134,
    "fields": {
      "name": "Inver Tralee Main Street",
      "station_type": "petrol",
      "fuel_price": "1.87",
      "latitude": 54.68146,
      "longitude": -10.553991,
      "updated_at": "2025-12-01T12:00:00Z"
    }
  },
  {
    "model": "stations.station",
    "pk": 135,
    "fields": {
      "name": "Circle K Dundalk Main Street",
      "station_type": "petrol",
      "fuel_price": "1.83",
      "latitude": 52.8335,
      "longitude": -6.611367,
      "updated_at": "2025-12-01T12:00:00Z"
    }
  },
  {
    "model": "stations.station",
    "pk": 136,
    "fields": {
      "name": "IONITY Navan Main Street",
      "station_type": "ev",
      "fuel_price": "0.00",
      "latitude": 51.912743,
      "longitude": -9.056488,
      "updated_at": "2025-12-01T12:00:00Z"
    }
  },
  {
    "model": "stations.station",
    "pk": 137,
    "fields": {
      "name": "Tesla Supercharger Galway Road",
      "station_type": "ev",
      "fuel_price": "0.00",
      "latitude": 55.272856,
      "longitude": -7.38169,
      "updated_at": "2025-12-01T12:00:00Z"
    }
  },
  {
    "model": "stations.station",
    "pk": 138,
    "fields": {
      "name": "Applegreen Ennis Main Street",
      "station_type": "petrol",
      "fuel_price": "1.74",
      "latitude": 51.444561,
      "longitude": -8.430289,
      "updated_at": "2025-12-01T12:00:00Z"
    }
  },
  {
    "model": "stations.station",
    "pk": 139,
    "fields": {
      "name": "ESB EV Naas Road",
      "station_type": "ev",
      "fuel_price": "0.00",
      "latitude": 53.974362,
      "longitude": -9.756271,
      "updated_at": "2025-12-01T12:00:00Z"
    }
  },
  {
    "model": "stations.station",
    "pk": 140,
    "fields": {
      "name": "EasyGo Athlone Link Road",
      "station_type": "ev",
      "fuel_price": "0.00",
      "latitude": 52.480965,
      "longitude": -6.202741,
      "updated_at": "2025-12-01T12:00:00Z"
    }
  },
  {
    "model": "stations.station",
    "pk": 141,
    "fields": {
      "name": "IONITY Naas Main Street",
      "station_type": "ev",
      "fuel_price": "0.00",
      "latitude": 51.967121,
      "longitude": -9.565014,
      "updated_at": "2025-12-01T12:00:00Z"
    }
  },
  {
    "model": "stations.station",
    "pk": 142,
    "fields": {
      "name": "Emo Longford Bypass",
      "station_type": "petrol",
      "fuel_price": "1.86",
      "latitude": 54.837467,
      "longitude": -9.117989,
      "updated_at": "2025-12-01T12:00:00Z"
    }
  },
  {
    "model": "stations.station",
    "pk": 143,
    "fields": {
      "name": "Inver Athlone Retail Park",
      "station_type": "petrol",
      "fuel_price": "1.76",
      "latitude": 54.663992,
      "longitude": -9.083581,
      "updated_at": "2025-12-01T12:00:00Z"
    }
  },
  {
    "model": "stations.station",
    "pk": 144,
    "fields": {
      "name": "Emo Wexford Bypass",
      "station_type": "petrol",
      "fuel_price": "1.77",
      "latitude": 53.171724,
      "longitude": -8.031738,
      "updated_at": "2025-12-01T12:00:00Z"
    }
  },
  {
    "model": "stations.station",
    "pk": 145,
    "fields": {
      "name": "Tesla Supercharger Naas Retail Park",
      "station_type": "ev",
      "fuel_price": "0.00",
      "latitude": 54.859711,
      "longitude": -5.440356,
      "updated_at": "2025-12-01T12:00:00Z"
    }
  },
  {
    "model": "stations.station",
    "pk": 146,
    "fields": {
      "name": "Maxol Bray Service Area",
      "station_type": "petrol",
      "fuel_price": "1.84",
      "latitude": 51.564153,
      "longitude": -6.672639,
      "updated_at": "2025-12-01T12:00:00Z"
    }
  },
  {
    "model": "stations.station",
    "pk": 147,
    "fields": {
      "name": "Tesla Supercharger Mullingar Link Road",
      "station_type": "ev",
      "fuel_price": "0.00",
      "latitude": 55.303464,
      "longitude": -7.974384,
      "updated_at": "2025-12-01T12:00:00Z"
    }
  },
  {
    "model": "stations.station",
    "pk": 148,
    "fields": {
      "name": "Top Oil Clonmel Retail Park",
      "station_type": "petrol",
      "fuel_price": "1.79",
      "latitude": 54.860104,
      "longitude": -5.996726,
      "updated_at": "2025-12-01T12:00:00Z"
    }
  },
  {
    "model": "stations.station",
    "pk": 149,
    "fields": {
      "name": "Maxol Dublin Link Road",
      "station_type": "petrol",
      "fuel_price": "1.89",
      "latitude": 51.96518,
      "longitude": -6.01373,
      "updated_at": "2025-12-01T12:00:00Z"
    }
  },
  {
    "model": "stations.station",
    "pk": 150,
    "fields": {
      "name": "Inver Navan Retail Park",
      "station_type": "petrol",
      "fuel_price": "1.72",
      "latitude": 53.876805,
      "longitude": -8.485137,
      "updated_at": "2025-12-01T12:00:00Z"
    }
  },
  {
    "model": "stations.station",
    "pk": 151,
    "fields": {
      "name": "Emo Tullamore Main Street",
      "station_type": "petrol",
      "fuel_price": "1.84",
      "latitude": 52.906237,
      "longitude": -8.907029,
      "updated_at": "2025-12-01T12:00:00Z"
    }
  },
  {
    "model": "stations.station",
    "pk": 152,
    "fields": {
      "name": "ESB EV Killarney Road",
      "station_type": "ev",
      "fuel_price": "0.00",
      "latitude": 52.326733,
      "longitude": -6.987434,
      "updated_at": "2025-12-01T12:00:00Z"
    }
  },
  {
    "model": "stations.station",
    "pk": 153,
    "fields": {
      "name": "Applegreen Castlebar Road",
      "station_type": "petrol",
      "fuel_price": "1.83",
      "latitude": 53.121546,
      "longitude": -10.046127,
      "updated_at": "2025-12-01T12:00:00Z"
    }
  },
  {
    "model": "stations.station",
    "pk": 154,
    "fields": {
      "name": "Tesla Supercharger Drogheda Link Road",
      "station_type": "ev",
      "fuel_price": "0.00",
      "latitude": 52.58487,
      "longitude": -10.408895,
      "updated_at": "2025-12-01T12:00:00Z"
    }
  },
  {
    "model": "stations.station",
    "pk": 155,
    "fields": {
      "name": "Circle K Ennis Retail Park",
      "station_type": "petrol",
      "fuel_price": "1.81",
      "latitude": 52.885616,
      "longitude": -9.800126,
      "updated_at": "2025-12-01T12:00:00Z"
    }
  },
  {
    "model": "stations.station",
    "pk": 156,
    "fields": {
      "name": "Inver Drogheda Bypass",
      "station_type": "petrol",
      "fuel_price": "1.78",
      "latitude": 52.088527,
      "longitude": -7.378453,
      "updated_at": "2025-12-01T12:00:00Z"
    }
  },
  {
    "model": "stations.station",
    "pk": 157,
    "fields": {
      "name": "Maxol Roscommon Main Street",
      "station_type": "petrol",
      "fuel_price": "1.75",
      "latitude": 51.96104,
      "longitude": -8.152797,
      "updated_at": "2025-12-01T12:00:00Z"
    }
  },
  {
    "model": "stations.station",
    "pk": 158,
    "fields": {
      "name": "Circle K Longford Service Area",
      "station_type": "petrol",
      "fuel_price": "1.73",
      "latitude": 54.985826,
      "longitude": -7.022871,
      "updated_at": "2025-12-01T12:00:00Z"
    }
  },
  {
    "model": "stations.station",
    "pk": 159,
    "fields": {
      "name": "Texaco Clonmel Retail Park",
      "station_type": "petrol",
      "fuel_price": "1.75",
      "latitude": 53.939365,
      "longitude": -8.345107,
      "updated_at": "2025-12-01T12:00:00Z"
    }
  },
  {
    "model": "stations.station",
    "pk": 160,
    "fields": {
      "name": "IONITY Tralee Service Area",
      "station_type": "ev",
      "fuel_price": "0.00",
      "latitude": 51.815547,
      "longitude": -8.569278,
      "updated_at": "2025-12-01T12:00:00Z"
    }
  },
  {
    "model": "stations.station",
    "pk": 161,
    "fields": {
      "name": "Texaco Balbriggan Retail Park",
      "station_type": "petrol",
      "fuel_price": "1.78",
      "latitude": 51.477539,
      "longitude": -6.227204,
      "updated_at": "2025-12-01T12:00:00Z"
    }
  },
  {
    "model": "stations.station",
    "pk": 162,
    "fields": {
      "name": "Inver Mullingar Link Road",
      "station_type": "petrol",
      "fuel_price": "1.85",
      "latitude": 55.274675,
      "longitude": -5.80658,
      "updated_at": "2025-12-01T12:00:00Z"
    }
  },
  {
    "model": "stations.station",
    "pk": 163,
    "fields": {
      "name": "EasyGo Arklow Bypass",
      "station_type": "ev",
      "fuel_price": "0.00",
      "latitude": 53.812189,
      "longitude": -8.720885,
      "updated_at": "2025-12-01T12:00:00Z"
    }
  },
  {
    "model": "stations.station",
    "pk": 164,
    "fields": {
      "name": "Top Oil Navan Link Road",
      "station_type": "petrol",
      "fuel_price": "1.84",
      "latitude": 54.404754,
      "longitude": -6.553803,
      "updated_at": "2025-12-01T12:00:00Z"
    }
  },
  {
    "model": "stations.station",
    "pk": 165,
    "fields": {
      "name": "Circle K Longford Link Road",
      "station_type": "petrol",
      "fuel_price": "1.79",
      "latitude": 53.968899,
      "longitude": -8.94737,
      "updated_at": "2025-12-01T12:00:00Z"
    }
  },
  {
    "model": "stations.station",
    "pk": 166,
    "fields": {
      "name": "Emo Waterford Road",
      "station_type": "petrol",
      "fuel_price": "1.78",
      "latitude": 55.019415,
      "longitude": -8.854526,
      "updated_at": "2025-12-01T12:00:00Z"
    }
  },
  {
    "model": "stations.station",
    "pk": 167,
    "fields": {
      "name": "Inver Letterkenny Retail Park",
      "station_type": "petrol",
      "fuel_price": "1.87",
      "latitude": 53.508101,
      "longitude": -5.791598,
      "updated_at": "2025-12-01T12:00:00Z"
    }
  },
  {
    "model": "stations.station",
    "pk": 168,
    "fields": {
      "name": "Inver Wexford Retail Park",
      "station_type": "petrol",
      "fuel_price": "1.72",
      "latitude": 54.368772,
      "longitude": -8.791906,
      "updated_at": "2025-12-01T12:00:00Z"
    }
  },
  {
    "model": "stations.station",
    "pk": 169,
    "fields": {
      "name": "IONITY Arklow Bypass",
      "station_type": "ev",
      "fuel_price": "0.00",
      "latitude": 54.821961,
      "longitude": -6.779589,
      "updated_at": "2025-12-01T12:00:00Z"
    }
  },
  {
    "model": "stations.station",
    "pk": 170,
    "fields": {
      "name": "EasyGo Limerick Service Area",
      "station_type": "ev",
      "fuel_price": "0.00",
      "latitude": 51.445535,
      "longitude": -7.759093,
      "updated_at": "2025-12-01T12:00:00Z"
    }
  },
  {
    "model": "stations.station",
    "pk": 171,
    "fields": {
      "name": "Emo Castlebar Link Road",
      "station_type": "petrol",
      "fuel_price": "1.83",
      "latitude": 52.436024,
      "longitude": -8.571047,
      "updated_at": "2025-12-01T12:00:00Z"
    }
  },
  {
    "model": "stations.station",
    "pk": 172,
    "fields": {
      "name": "Emo Bray Service Area",
      "station_type": "petrol",
      "fuel_price": "1.81",
      "latitude": 51.489848,
      "longitude": -5.944294,
      "updated_at": "2025-12-01T12:00:00Z"
    }
  },
  {
    "model": "stations.station",
    "pk": 173,
    "fields": {
      "name": "IONITY Portlaoise Road",
      "station_type": "ev",
      "fuel_price": "0.00",
      "latitude": 53.925262,
      "longitude": -8.136523,
      "updated_at": "2025-12-01T12:00:00Z"
    }
  },
  {
    "model": "stations.station",
    "pk": 174,
    "fields": {
      "name": "Emo Carlow Road",
      "station_type": "petrol",
      "fuel_price": "1.76",
      "latitude": 51.94771,
      "longitude": -5.620515,
      "updated_at": "2025-12-01T12:00:00Z"
    }
  },
  {
    "model": "stations.station",
    "pk": 175,
    "fields": {
      "name": "Circle K Bray Main Street",
      "station_type": "petrol",
      "fuel_price": "1.83",
      "latitude": 51.9313,
      "longitude": -8.19198,
      "updated_at": "2025-12-01T12:00:00Z"
    }
  },
  {
    "model": "stations.station",
    "pk": 176,
    "fields": {
      "name": "Top Oil Carlow Main Street",
      "station_type": "petrol",
      "fuel_price": "1.78",
      "latitude": 54.351653,
      "longitude": -9.75339,
      "updated_at": "2025-12-01T12:00:00Z"
    }
  },
  {
    "model": "stations.station",
    "pk": 177,
    "fields": {
      "name": "Maxol Killarney Service Area",
      "station_type": "petrol",
      "fuel_price": "1.84",
      "latitude": 55.136822,
      "longitude": -9.099756,
      "updated_at": "2025-12-01T12:00:00Z"
    }
  },
  {
    "model": "stations.station",
    "pk": 178,
    "fields": {
      "name": "Maxol Bray Retail Park",
      "station_type": "petrol",
      "fuel_price": "1.81",
      "latitude": 51.786425,
      "longitude": -6.980749,
      "updated_at": "2025-12-01T12:00:00Z"
    }
  },
  {
    "model": "stations.station",
    "pk": 179,
    "fields": {
      "name": "EasyGo Cork Service Area",
      "station_type": "ev",
      "fuel_price": "0.00",
      "latitude": 52.490767,
      "longitude": -5.50596,
      "updated_at": "2025-12-01T12:00:00Z"
    }
  },
  {
    "model": "stations.station",
    "pk": 180,
    "fields": {
      "name": "Tesla Supercharger Limerick Link Road",
      "station_type": "ev",
      "fuel_price": "0.00",
      "latitude": 52.236302,
      "longitude": -7.221847,
      "updated_at": "2025-12-01T12:00:00Z"
    }
  },
  {
    "model": "stations.station",
    "pk": 181,
    "fields": {
      "name": "ESB EV Cavan Retail Park",
      "station_type": "ev",
      "fuel_price": "0.00",
      "latitude": 52.36184,
      "longitude": -9.902677,
      "updated_at": "2025-12-01T12:00:00Z"
    }
  },
  {
    "model": "stations.station",
    "pk": 182,
    "fields": {
      "name": "Circle K Tuam Main Street",
      "station_type": "petrol",
      "fuel_price": "1.87",
      "latitude": 52.216558,
      "longitude": -9.432734,
      "updated_at": "2025-12-01T12:00:00Z"
    }
  },
  {
    "model": "stations.station",
    "pk": 183,
    "fields": {
      "name": "Applegreen Cavan Main Street",
      "station_type": "petrol",
      "fuel_price": "1.73",
      "latitude": 51.401314,
      "longitude": -6.07912,
      "updated_at": "2025-12-01T12:00:00Z"
    }
  },
  {
    "model": "stations.station",
    "pk": 184,
    "fields": {
      "name": "Texaco Cavan Bypass",
      "station_type": "petrol",
      "fuel_price": "1.73",
      "latitude": 51.828606,
      "longitude": -6.037142,
      "updated_at": "2025-12-01T12:00:00Z"
    }
  },
  {
    "model": "stations.station",
    "pk": 185,
    "fields": {
      "name": "Inver Bray Main Street",
      "station_type": "petrol",
      "fuel_price": "1.71",
      "latitude": 52.681848,
      "longitude": -9.650435,
      "updated_at": "2025-12-01T12:00:00Z"
    }
  },
  {
    "model": "stations.station",
    "pk": 186,
    "fields": {
      "name": "Top Oil Galway Link Road",
      "station_type": "petrol",
      "fuel_price": "1.77",
      "latitude": 51.643597,
      "longitude": -8.220003,
      "updated_at": "2025-12-01T12:00:00Z"
    }
  },
  {
    "model": "stations.station",
    "pk": 187,
    "fields": {
      "name": "Maxol Athlone Bypass",
      "station_type": "petrol",
      "fuel_price": "1.86",
      "latitude": 55.162208,
      "longitude": -10.333635,
      "updated_at": "2025-12-01T12:00:00Z"
    }
  },
  {
    "model": "stations.station",
    "pk": 188,
    "fields": {
      "name": "EasyGo Naas Link Road",
      "station_type": "ev",
      "fuel_price": "0.00",
      "latitude": 55.236464,
      "longitude": -10.242491,
      "updated_at": "2025-12-01T12:00:00Z"
    }
  },
  {
    "model": "stations.station",
    "pk": 189,
    "fields": {
      "name": "Maxol Carlow Link Road",
      "station_type": "petrol",
      "fuel_price": "1.79",
      "latitude": 51.820768,
      "longitude": -6.841265,
      "updated_at": "2025-12-01T12:00:00Z"
    }
  },
  {
    "model": "stations.station",
    "pk": 190,
    "fields": {
      "name": "EasyGo Killarney Bypass",
      "station_type": "ev",
      "fuel_price": "0.00",
      "latitude": 51.652072,
      "longitude": -9.124416,
      "updated_at": "2025-12-01T12:00:00Z"
    }
  },
  {
    "model": "stations.station",
    "pk": 191,
    "fields": {
      "name": "Top Oil Balbriggan Retail Park",
      "station_type": "petrol",
      "fuel_price": "1.76",
      "latitude": 52.909809,
      "longitude": -7.441615,
      "updated_at": "2025-12-01T12:00:00Z"
    }
  },
  {
    "model": "stations.station",
    "pk": 192,
    "fields": {
      "name": "Maxol Galway Link Road",
      "station_type": "petrol",
      "fuel_price": "1.88",
      "latitude": 51.846512,
      "longitude": -7.142398,
      "updated_at": "2025-12-01T12:00:00Z"
    }
  },
  {
    "model": "stations.station",
    "pk": 193,
    "fields": {
      "name": "Inver Dundalk Service Area",
      "station_type": "petrol",
      "fuel_price": "1.77",
      "latitude": 53.191704,
      "longitude": -9.367264,
      "updated_at": "2025-12-01T12:00:00Z"
    }
  },
  {
    "model": "stations.station",
    "pk": 194,
    "fields": {
      "name": "Maxol Castlebar Road",
      "station_type": "petrol",
      "fuel_price": "1.75",
      "latitude": 52.637068,
      "longitude": -8.928627,
      "updated_at": "2025-12-01T12:00:00Z"
    }
  },
  {
    "model": "stations.station",
    "pk": 195,
    "fields": {
      "name": "Tesla Supercharger Limerick Road",
      "station_type": "ev",
      "fuel_price": "0.00",
      "latitude": 54.70877,
      "longitude": -10.073339,
      "updated_at": "2025-12-01T12:00:00Z"
    }
  },
  {
    "model": "stations.station",
    "pk": 196,
    "fields": {
      "name": "Emo Sligo Bypass",
      "station_type": "petrol",
      "fuel_price": "1.81",
      "latitude": 53.609919,
      "longitude": -7.498652,
      "updated_at": "2025-12-01T12:00:00Z"
    }
  },
  {
    "model": "stations.station",
    "pk": 197,
    "fields": {
      "name": "Circle K Carlow Retail Park",
      "station_type": "petrol",
      "fuel_price": "1.78",
      "latitude": 54.875693,
      "longitude": -5.647302,
      "updated_at": "2025-12-01T12:00:00Z"
    }
  },
  {
    "model": "stations.station",
    "pk": 198,
    "fields": {
      "name": "ESB EV Ennis Main Street",
      "station_type": "ev",
      "fuel_price": "0.00",
      "latitude": 52.636671,
      "longitude": -10.019205,
      "updated_at": "2025-12-01T12:00:00Z"
    }
  },
  {
    "model": "stations.station",
    "pk": 199,
    "fields": {
      "name": "Applegreen Mullingar Service Area",
      "station_type": "petrol",
      "fuel_price": "1.87",
      "latitude": 52.284737,
      "longitude": -9.9951,
      "updated_at": "2025-12-01T12:00:00Z"
    }
  },
  {
    "model": "stations.station",
    "pk": 200,
    "fields": {
      "name": "Inver Navan Main Street",
      "station_type": "petrol",
      "fuel_price": "1.81",
      "latitude": 52.292375,
      "longitude": -8.320033,
      "updated_at": "2025-12-01T12:00:00Z"
    }
  },
  {
    "model": "stations.station",
    "pk": 201,
    "fields": {
      "name": "ESB EV Killarney Link Road",
      "station_type": "ev",
      "fuel_price": "0.00",
      "latitude": 54.699549,
      "longitude": -9.163923,
      "updated_at": "2025-12-01T12:00:00Z"
    }
  },
  {
    "model": "stations.station",
    "pk": 202,
    "fields": {
      "name": "Emo Arklow Retail Park",
      "station_type": "petrol",
      "fuel_price": "1.74",
      "latitude": 55.066935,
      "longitude": -8.727658,
      "updated_at": "2025-12-01T12:00:00Z"
    }
  },
  {
    "model": "stations.station",
    "pk": 203,
    "fields": {
      "name": "Emo Tralee Road",
      "station_type": "petrol",
      "fuel_price": "1.71",
      "latitude": 51.95608,
      "longitude": -7.254842,
      "updated_at": "2025-12-01T12:00:00Z"
    }
  },
  {
    "model": "stations.station",
    "pk": 204,
    "fields": {
      "name": "Applegreen Tralee Service Area",
      "station_type": "petrol",
      "fuel_price": "1.76",
      "latitude": 53.200047,
      "longitude": -9.738324,
      "updated_at": "2025-12-01T12:00:00Z"
    }
  },
  {
    "model": "stations.station",
    "pk": 205,
    "fields": {
      "name": "Top Oil Killarney Road",
      "station_type": "petrol",
      "fuel_price": "1.85",
      "latitude": 54.914535,
      "longitude": -9.747873,
      "updated_at": "2025-12-01T12:00:00Z"
    }
  },
  {
    "model": "stations.station",
    "pk": 206,
    "fields": {
      "name": "Circle K Navan Service Area",
      "station_type": "petrol",
      "fuel_price": "1.79",
      "latitude": 54.031135,
      "longitude": -8.024846,
      "updated_at": "2025-12-01T12:00:00Z"
    }
  },
  {
    "model": "stations.station",
    "pk": 207,
    "fields": {
      "name": "Inver Athlone Road",
      "station_type": "petrol",
      "fuel_price": "1.84",
      "latitude": 52.76724,
      "longitude": -9.981155,
      "updated_at": "2025-12-01T12:00:00Z"
    }
  },
  {
    "model": "stations.station",
    "pk": 208,
    "fields": {
      "name": "Top Oil Mullingar Retail Park",
      "station_type": "petrol",
      "fuel_price": "1.82",
      "latitude": 51.571215,
      "longitude": -8.496725,
      "updated_at": "2025-12-01T12:00:00Z"
    }
  },
  {
    "model": "stations.station",
    "pk": 209,
    "fields": {
      "name": "Texaco Dundalk Bypass",
      "station_type": "petrol",
      "fuel_price": "1.72",
      "latitude": 54.439002,
      "longitude": -9.049086,
      "updated_at": "2025-12-01T12:00:00Z"
    }
  },
  {
    "model": "stations.station",
    "pk": 210,
    "fields": {
      "name": "Maxol Drogheda Bypass",
      "station_type": "petrol",
      "fuel_price": "1.80",
      "latitude": 52.907028,
      "longitude": -6.886836,
      "updated_at": "2025-12-01T12:00:00Z"
    }
  },
  {
    "model": "stations.station",
    "pk": 211,
    "fields": {
      "name": "EasyGo Limerick Service Area",
      "station_type": "ev",
      "fuel_price": "0.00",
      "latitude": 54.82844,
      "longitude": -10.339182,
      "updated_at": "2025-12-01T12:00:00Z"
    }
  },
  {
    "model": "stations.station",
    "pk": 212,
    "fields": {
      "name": "Circle K Tullamore Retail Park",
      "station_type": "petrol",
      "fuel_price": "1.84",
      "latitude": 53.687279,
      "longitude": -7.566854,
      "updated_at": "2025-12-01T12:00:00Z"
    }
  },
  {
    "model": "stations.station",
    "pk": 213,
    "fields": {
      "name": "Circle K Tralee Road",
      "station_type": "petrol",
      "fuel_price": "1.89",
      "latitude": 55.245137,
      "longitude": -9.662822,
      "updated_at": "2025-12-01T12:00:00Z"
    }
  },
  {
    "model": "stations.station",
    "pk": 214,
    "fields": {
      "name": "Emo Roscommon Retail Park",
      "station_type": "petrol",
      "fuel_price": "1.75",
      "latitude": 51.741638,
      "longitude": -6.151792,
      "updated_at": "2025-12-01T12:00:00Z"
    }
  },
  {
    "model": "stations.station",
    "pk": 215,
    "fields": {
      "name": "Top Oil Limerick Service Area",
      "station_type": "petrol",
      "fuel_price": "1.74",
      "latitude": 54.863392,
      "longitude": -6.666899,
      "updated_at": "2025-12-01T12:00:00Z"
    }
  },
  {
    "model": "stations.station",
    "pk": 216,
    "fields": {
      "name": "ESB EV Athlone Link Road",
      "station_type": "ev",
      "fuel_price": "0.00",
      "latitude": 51.844966,
      "longitude": -7.89805,
      "updated_at": "2025-12-01T12:00:00Z"
    }
  },
  {
    "model": "stations.station",
    "pk": 217,
    "fields": {
      "name": "EasyGo Sligo Link Road",
      "station_type": "ev",
      "fuel_price": "0.00",
      "latitude": 55.213311,
      "longitude": -7.190788,
      "updated_at": "2025-12-01T12:00:00Z"
    }
  },
  {
    "model": "stations.station",
    "pk": 218,
    "fields": {
      "name": "Circle K Waterford Retail Park",
      "station_type": "petrol",
      "fuel_price": "1.85",
      "latitude": 52.177114,
      "longitude": -7.415477,
      "updated_at": "2025-12-01T12:00:00Z"
    }
  },
  {
    "model": "stations.station",
    "pk": 219,
    "fields": {
      "name": "Applegreen Arklow Link Road",
      "station_type": "petrol",
      "fuel_price": "1.85",
      "latitude": 53.361527,
      "longitude": -6.621793,
      "updated_at": "2025-12-01T12:00:00Z"
    }
  },
  {
    "model": "stations.station",
    "pk": 220,
    "fields": {
      "name": "Top Oil Portlaoise Link Road",
      "station_type": "petrol",
      "fuel_price": "1.89",
      "latitude": 55.326262,
      "longitude": -8.872853,
      "updated_at": "2025-12-01T12:00:00Z"
    }
  },
  {
    "model": "stations.station",
    "pk": 221,
    "fields": {
      "name": "Maxol Limerick Service Area",
      "station_type": "petrol",
      "fuel_price": "1.75",
      "latitude": 53.15441,
      "longitude": -8.979277,
      "updated_at": "2025-12-01T12:00:00Z"
    }
  },
  {
    "model": "stations.station",
    "pk": 222,
    "fields": {
      "name": "Top Oil Limerick Retail Park",
      "station_type": "petrol",
      "fuel_price": "1.77",
      "latitude": 53.232353,
      "longitude": -10.36369,
      "updated_at": "2025-12-01T12:00:00Z"
    }
  },
  {
    "model": "stations.station",
    "pk": 223,
    "fields": {
      "name": "Emo Tullamore Road",
      "station_type": "petrol",
      "fuel_price": "1.79",
      "latitude": 53.843883,
      "longitude": -7.913106,
      "updated_at": "2025-12-01T12:00:00Z"
    }
  },
  {
    "model": "stations.station",
    "pk": 224,
    "fields": {
      "name": "Inver Castlebar Road",
      "station_type": "petrol",
      "fuel_price": "1.83",
      "latitude": 53.184437,
      "longitude": -6.332761,
      "updated_at": "2025-12-01T12:00:00Z"
    }
  },
  {
    "model": "stations.station",
    "pk": 225,
    "fields": {
      "name": "Maxol Athlone Bypass",
      "station_type": "petrol",
      "fuel_price": "1.86",
      "latitude": 55.211312,
      "longitude": -8.208269,
      "updated_at": "2025-12-01T12:00:00Z"
    }
  },
  {
    "model": "stations.station",
    "pk": 226,
    "fields": {
      "name": "ESB EV Athlone Link Road",
      "station_type": "ev",
      "fuel_price": "0.00",
      "latitude": 52.07851,
      "longitude": -9.266778,
      "updated_at": "2025-12-01T12:00:00Z"
    }
  },
  {
    "model": "stations.station",
    "pk": 227,
    "fields": {
      "name": "Maxol Athlone Main Street",
      "station_type": "petrol",
      "fuel_price": "1.88",
      "latitude": 53.823124,
      "longitude": -8.660453,
      "updated_at": "2025-12-01T12:00:00Z"
    }
  },
  {
    "model": "stations.station",
    "pk": 228,
    "fields": {
      "name": "Inver Kilkenny Link Road",
      "station_type": "petrol",
      "fuel_price": "1.83",
      "latitude": 53.775565,
      "longitude": -6.440235,
      "updated_at": "2025-12-01T12:00:00Z"
    }
  },
  {
    "model": "stations.station",
    "pk": 229,
    "fields": {
      "name": "Circle K Letterkenny Link Road",
      "station_type": "petrol",
      "fuel_price": "1.87",
      "latitude": 52.932391,
      "longitude": -9.244582,
      "updated_at": "2025-12-01T12:00:00Z"
    }
  },
  {
    "model": "stations.station",
    "pk": 230,
    "fields": {
      "name": "IONITY Kilkenny Road",
      "station_type": "ev",
      "fuel_price": "0.00",
      "latitude": 53.715131,
      "longitude": -9.821744,
      "updated_at": "2025-12-01T12:00:00Z"
    }
  },
  {
    "model": "stations.station",
    "pk": 231,
    "fields": {
      "name": "Emo Balbriggan Link Road",
      "station_type": "petrol",
      "fuel_price": "1.89",
      "latitude": 52.953912,
      "longitude": -7.453885,
      "updated_at": "2025-12-01T12:00:00Z"
    }
  },
  {
    "model": "stations.station",
    "pk": 232,
    "fields": {
      "name": "Maxol Portlaoise Retail Park",
      "station_type": "petrol",
      "fuel_price": "1.87",
      "latitude": 54.634607,
      "longitude": -7.061992,
      "updated_at": "2025-12-01T12:00:00Z"
    }
  },
  {
    "model": "stations.station",
    "pk": 233,
    "fields": {
      "name": "Emo Roscommon Main Street",
      "station_type": "petrol",
      "fuel_price": "1.80",
      "latitude": 51.762877,
      "longitude": -7.060219,
      "updated_at": "2025-12-01T12:00:00Z"
    }
  },
  {
    "model": "stations.station",
    "pk": 234,
    "fields": {
      "name": "Texaco Drogheda Bypass",
      "station_type": "petrol",
      "fuel_price": "1.74",
      "latitude": 52.753512,
      "longitude": -6.560665,
      "updated_at": "2025-12-01T12:00:00Z"
    }
  },
  {
    "model": "stations.station",
    "pk": 235,
    "fields": {
      "name": "IONITY Limerick Retail Park",
      "station_type": "ev",
      "fuel_price": "0.00",
      "latitude": 54.759269,
      "longitude": -10.032045,
      "updated_at": "2025-12-01T12:00:00Z"
    }
  },
  {
    "model": "stations.station",
    "pk": 236,
    "fields": {
      "name": "ESB EV Mullingar Retail Park",
      "station_type": "ev",
      "fuel_price": "0.00",
      "latitude": 54.886807,
      "longitude": -7.333876,
      "updated_at": "2025-12-01T12:00:00Z"
    }
  },
  {
    "model": "stations.station",
    "pk": 237,
    "fields": {
      "name": "Applegreen Drogheda Bypass",
      "station_type": "petrol",
      "fuel_price": "1.86",
      "latitude": 54.707067,
      "longitude": -6.534869,
      "updated_at": "2025-12-01T12:00:00Z"
    }
  },
  {
    "model": "stations.station",
    "pk": 238,
    "fields": {
      "name": "Maxol Cork Service Area",
      "station_type": "petrol",
      "fuel_price": "1.89",
      "latitude": 52.843555,
      "longitude": -6.803763,
      "updated_at": "2025-12-01T12:00:00Z"
    }
  },
  {
    "model": "stations.station",
    "pk": 239,
    "fields": {
      "name": "Inver Castlebar Service Area",
      "station_type": "petrol",
      "fuel_price": "1.89",
      "latitude": 52.323672,
      "longitude": -9.31154,
      "updated_at": "2025-12-01T12:00:00Z"
    }
  },
  {
    "model": "stations.station",
    "pk": 240,
    "fields": {
      "name": "IONITY Sligo Link Road",
      "station_type": "ev",
      "fuel_price": "0.00",
      "latitude": 55.169049,
      "longitude": -5.421224,
      "updated_at": "2025-12-01T12:00:00Z"
    }
  },
  {
    "model": "stations.station",
    "pk": 241,
    "fields": {
      "name": "Texaco Arklow Service Area",
      "station_type": "petrol",
      "fuel_price": "1.73",
      "latitude": 53.396598,
      "longitude": -8.37459,
      "updated_at": "2025-12-01T12:00:00Z"
    }
  },
  {
    "model": "stations.station",
    "pk": 242,
    "fields": {
      "name": "Top Oil Waterford Retail Park",
      "station_type": "petrol",
      "fuel_price": "1.77",
      "latitude": 51.598197,
      "longitude": -8.051317,
      "updated_at": "2025-12-01T12:00:00Z"
    }
  },
  {
    "model": "stations.station",
    "pk": 243,
    "fields": {
      "name": "ESB EV Ennis Road",
      "station_type": "ev",
      "fuel_price": "0.00",
      "latitude": 54.434836,
      "longitude": -9.136029,
      "updated_at": "2025-12-01T12:00:00Z"
    }
  },
  {
    "model": "stations.station",
    "pk": 244,
    "fields": {
      "name": "IONITY Tuam Service Area",
      "station_type": "ev",
      "fuel_price": "0.00",
      "latitude": 51.755937,
      "longitude": -5.807164,
      "updated_at": "2025-12-01T12:00:00Z"
    }
  },
  {
    "model": "stations.station",
    "pk": 245,
    "fields": {
      "name": "EasyGo Roscommon Road",
      "station_type": "ev",
      "fuel_price": "0.00",
      "latitude": 53.045439,
      "longitude": -8.49051,
      "updated_at": "2025-12-01T12:00:00Z"
    }
  },
  {
    "model": "stations.station",
    "pk": 246,
    "fields": {
      "name": "Maxol Limerick Retail Park",
      "station_type": "petrol",
      "fuel_price": "1.72",
      "latitude": 52.28591,
      "longitude": -8.896465,
      "updated_at": "2025-12-01T12:00:00Z"
    }
  },
  {
    "model": "stations.station",
    "pk": 247,
    "fields": {
      "name": "Texaco Cavan Bypass",
      "station_type": "petrol",
      "fuel_price": "1.87",
      "latitude": 51.939022,
      "longitude": -9.06249,
      "updated_at": "2025-12-01T12:00:00Z"
    }
  },
  {
    "model": "stations.station",
    "pk": 248,
    "fields": {
      "name": "Applegreen Arklow Link Road",
      "station_type": "petrol",
      "fuel_price": "1.88",
      "latitude": 53.261749,
      "longitude": -7.347882,
      "updated_at": "2025-12-01T12:00:00Z"
    }
  },
  {
    "model": "stations.station",
    "pk": 249,
    "fields": {
      "name": "Applegreen Tuam Bypass",
      "station_type": "petrol",
      "fuel_price": "1.81",
      "latitude": 53.579729,
      "longitude": -6.763834,
      "updated_at": "2025-12-01T12:00:00Z"
    }
  },
  {
    "model": "stations.station",
    "pk": 250,
    "fields": {
      "name": "Texaco Bray Retail Park",
      "station_type": "petrol",
      "fuel_price": "1.83",
      "latitude": 51.876175,
      "longitude": -9.315346,
      "updated_at": "2025-12-01T12:00:00Z"
    }
  },
  {
    "model": "stations.station",
    "pk": 251,
    "fields": {
      "name": "Circle K Galway Service Area",
      "station_type": "petrol",
      "fuel_price": "1.80",
      "latitude": 53.770989,
      "longitude": -10.474207,
      "updated_at": "2025-12-01T12:00:00Z"
    }
  },
  {
    "model": "stations.station",
    "pk": 252,
    "fields": {
      "name": "Applegreen Ennis Service Area",
      "station_type": "petrol",
      "fuel_price": "1.81",
      "latitude": 51.396242,
      "longitude": -8.7183,
      "updated_at": "2025-12-01T12:00:00Z"
    }
  },
  {
    "model": "stations.station",
    "pk": 253,
    "fields": {
      "name": "Emo Limerick Main Street",
      "station_type": "petrol",
      "fuel_price": "1.81",
      "latitude": 55.278871,
      "longitude": -10.206714,
      "updated_at": "2025-12-01T12:00:00Z"
    }
  },
  {
    "model": "stations.station",
    "pk": 254,
    "fields": {
      "name": "Top Oil Letterkenny Road",
      "station_type": "petrol",
      "fuel_price": "1.83",
      "latitude": 52.94791,
      "longitude": -8.105895,
      "updated_at": "2025-12-01T12:00:00Z"
    }
  },
  {
    "model": "stations.station",
    "pk": 255,
    "fields": {
      "name": "EasyGo Castlebar Road",
      "station_type": "ev",
      "fuel_price": "0.00",
      "latitude": 52.814805,
      "longitude": -10.207339,
      "updated_at": "2025-12-01T12:00:00Z"
    }
  },
  {
    "model": "stations.station",
    "pk": 256,
    "fields": {
      "name": "Emo Portlaoise Road",
      "station_type": "petrol",
      "fuel_price": "1.77",
      "latitude": 54.46829,
      "longitude": -6.722324,
      "updated_at": "2025-12-01T12:00:00Z"
    }
  },
  {
    "model": "stations.station",
    "pk": 257,
    "fields": {
      "name": "Top Oil Kilkenny Link Road",
      "station_type": "petrol",
      "fuel_price": "1.79",
      "latitude": 52.088606,
      "longitude": -6.492876,
      "updated_at": "2025-12-01T12:00:00Z"
    }
  },
  {
    "model": "stations.station",
    "pk": 258,
    "fields": {
      "name": "Emo Drogheda Bypass",
      "station_type": "petrol",
      "fuel_price": "1.79",
      "latitude": 51.641771,
      "longitude": -6.508286,
      "updated_at": "2025-12-01T12:00:00Z"
    }
  },
  {
    "model": "stations.station",
    "pk": 259,
    "fields": {
      "name": "Circle K Cavan Bypass",
      "station_type": "petrol",
      "fuel_price": "1.76",
      "latitude": 54.924304,
      "longitude": -8.91259,
      "updated_at": "2025-12-01T12:00:00Z"
    }
  },
  {
    "model": "stations.station",
    "pk": 260,
    "fields": {
      "name": "Inver Letterkenny Service Area",
      "station_type": "petrol",
      "fuel_price": "1.74",
      "latitude": 52.400722,
      "longitude": -6.627821,
      "updated_at": "2025-12-01T12:00:00Z"
    }
  },
  {
    "model": "stations.station",
    "pk": 261,
    "fields": {
      "name": "Inver Cork Link Road",
      "station_type": "petrol",
      "fuel_price": "1.77",
      "latitude": 52.714379,
      "longitude": -9.91024,
      "updated_at": "2025-12-01T12:00:00Z"
    }
  },
  {
    "model": "stations.station",
    "pk": 262,
    "fields": {
      "name": "Tesla Supercharger Longford Service Area",
      "station_type": "ev",
      "fuel_price": "0.00",
      "latitude": 52.742756,
      "longitude": -9.584814,
      "updated_at": "2025-12-01T12:00:00Z"
    }
  },
  {
    "model": "stations.station",
    "pk": 263,
    "fields": {
      "name": "Texaco Roscommon Main Street",
      "station_type": "petrol",
      "fuel_price": "1.78",
      "latitude": 52.454216,
      "longitude": -10.128768,
      "updated_at": "2025-12-01T12:00:00Z"
    }
  },
  {
    "model": "stations.station",
    "pk": 264,
    "fields": {
      "name": "Inver Drogheda Main Street",
      "station_type": "petrol",
      "fuel_price": "1.77",
      "latitude": 52.562128,
      "longitude": -10.024439,
      "updated_at": "2025-12-01T12:00:00Z"
    }
  },
  {
    "model": "stations.station",
    "pk": 265,
    "fields": {
      "name": "Maxol Killarney Link Road",
      "station_type": "petrol",
      "fuel_price": "1.77",
      "latitude": 53.090203,
      "longitude": -6.959428,
      "updated_at": "2025-12-01T12:00:00Z"
    }
  },
  {
    "model": "stations.station",
    "pk": 266,
    "fields": {
      "name": "Inver Roscommon Retail Park",
      "station_type": "petrol",
      "fuel_price": "1.83",
      "latitude": 53.843257,
      "longitude": -8.289611,
      "updated_at": "2025-12-01T12:00:00Z"
    }
  },
  {
    "model": "stations.station",
    "pk": 267,
    "fields": {
      "name": "ESB EV Limerick Link Road",
      "station_type": "ev",
      "fuel_price": "0.00",
      "latitude": 53.933675,
      "longitude": -8.663516,
      "updated_at": "2025-12-01T12:00:00Z"
    }
  },
  {
    "model": "stations.station",
    "pk": 268,
    "fields": {
      "name": "IONITY Dublin Bypass",
      "station_type": "ev",
      "fuel_price": "0.00",
      "latitude": 54.776191,
      "longitude": -7.020376,
      "updated_at": "2025-12-01T12:00:00Z"
    }
  },
  {
    "model": "stations.station",
    "pk": 269,
    "fields": {
      "name": "Applegreen Limerick Bypass",
      "station_type": "petrol",
      "fuel_price": "1.78",
      "latitude": 54.496276,
      "longitude": -8.647765,
      "updated_at": "2025-12-01T12:00:00Z"
    }
  },
  {
    "model": "stations.station",
    "pk": 270,
    "fields": {
      "name": "Top Oil Waterford Link Road",
      "station_type": "petrol",
      "fuel_price": "1.79",
      "latitude": 53.185191,
      "longitude": -8.623565,
      "updated_at": "2025-12-01T12:00:00Z"
    }
  },
  {
    "model": "stations.station",
    "pk": 271,
    "fields": {
      "name": "Applegreen Athlone Retail Park",
      "station_type": "petrol",
      "fuel_price": "1.75",
      "latitude": 52.978156,
      "longitude": -7.169293,
      "updated_at": "2025-12-01T12:00:00Z"
    }
  },
  {
    "model": "stations.station",
    "pk": 272,
    "fields": {
      "name": "Emo Drogheda Service Area",
      "station_type": "petrol",
      "fuel_price": "1.72",
      "latitude": 53.455804,
      "longitude": -5.791308,
      "updated_at": "2025-12-01T12:00:00Z"
    }
  },
  {
    "model": "stations.station",
    "pk": 273,
    "fields": {
      "name": "Tesla Supercharger Dundalk Main Street",
      "station_type": "ev",
      "fuel_price": "0.00",
      "latitude": 52.529452,
      "longitude": -5.77598,
      "updated_at": "2025-12-01T12:00:00Z"
    }
  },
  {
    "model": "stations.station",
    "pk": 274,
    "fields": {
      "name": "Circle K Waterford Road",
      "station_type": "petrol",
      "fuel_price": "1.79",
      "latitude": 53.19365,
      "longitude": -5.868895,
      "updated_at": "2025-12-01T12:00:00Z"
    }
  },
  {
    "model": "stations.station",
    "pk": 275,
    "fields": {
      "name": "Emo Tullamore Retail Park",
      "station_type": "petrol",
      "fuel_price": "1.81",
      "latitude": 54.054681,
      "longitude": -6.856199,
      "updated_at": "2025-12-01T12:00:00Z"
    }
  },
  {
    "model": "stations.station",
    "pk": 276,
    "fields": {
      "name": "Texaco Tullamore Bypass",
      "station_type": "petrol",
      "fuel_price": "1.83",
      "latitude": 54.230118,
      "longitude": -5.719366,
      "updated_at": "2025-12-01T12:00:00Z"
    }
  },
  {
    "model": "stations.station",
    "pk": 277,
    "fields": {
      "name": "IONITY Galway Bypass",
      "station_type": "ev",
      "fuel_price": "0.00",
      "latitude": 54.550342,
      "longitude": -9.324237,
      "updated_at": "2025-12-01T12:00:00Z"
    }
  },
  {
    "model": "stations.station",
    "pk": 278,
    "fields": {
      "name": "Texaco Letterkenny Main Street",
      "station_type": "petrol",
      "fuel_price": "1.81",
      "latitude": 52.861956,
      "longitude": -6.364886,
      "updated_at": "2025-12-01T12:00:00Z"
    }
  },
  {
    "model": "stations.station",
    "pk": 279,
    "fields": {
      "name": "Circle K Limerick Retail Park",
      "station_type": "petrol",
      "fuel_price": "1.80",
      "latitude": 52.978658,
      "longitude": -6.817607,
      "updated_at": "2025-12-01T12:00:00Z"
    }
  },
  {
    "model": "stations.station",
    "pk": 280,
    "fields": {
      "name": "Maxol Tuam Main Street",
      "station_type": "petrol",
      "fuel_price": "1.83",
      "latitude": 51.684265,
      "longitude": -5.484178,
      "updated_at": "2025-12-01T12:00:00Z"
    }
  },
  {
    "model": "stations.station",
    "pk": 281,
    "fields": {
      "name": "Emo Athlone Retail Park",
      "station_type": "petrol",
      "fuel_price": "1.81",
      "latitude": 51.902055,
      "longitude": -6.23234,
      "updated_at": "2025-12-01T12:00:00Z"
    }
  },
  {
    "model": "stations.station",
    "pk": 282,
    "fields": {
      "name": "Inver Waterford Service Area",
      "station_type": "petrol",
      "fuel_price": "1.87",
      "latitude": 53.396427,
      "longitude": -6.027935,
      "updated_at": "2025-12-01T12:00:00Z"
    }
  },
  {
    "model": "stations.station",
    "pk": 283,
    "fields": {
      "name": "Texaco Drogheda Bypass",
      "station_type": "petrol",
      "fuel_price": "1.77",
      "latitude": 52.677416,
      "longitude": -6.857286,
      "updated_at": "2025-12-01T12:00:00Z"
    }
  },
  {
    "model": "stations.station",
    "pk": 284,
    "fields": {
      "name": "EasyGo Tullamore Road",
      "station_type": "ev",
      "fuel_price": "0.00",
      "latitude": 52.389915,
      "longitude": -7.245002,
      "updated_at": "2025-12-01T12:00:00Z"
    }
  },
  {
    "model": "stations.station",
    "pk": 285,
    "fields": {
      "name": "Applegreen Portlaoise Retail Park",
      "station_type": "petrol",
      "fuel_price": "1.83",
      "latitude": 53.841569,
      "longitude": -10.072304,
      "updated_at": "2025-12-01T12:00:00Z"
    }
  },
  {
    "model": "stations.station",
    "pk": 286,
    "fields": {
      "name": "Top Oil Waterford Bypass",
      "station_type": "petrol",
      "fuel_price": "1.82",
      "latitude": 54.018344,
      "longitude": -6.798297,
      "updated_at": "2025-12-01T12:00:00Z"
    }
  },
  {
    "model": "stations.station",
    "pk": 287,
    "fields": {
      "name": "ESB EV Tuam Road",
      "station_type": "ev",
      "fuel_price": "0.00",
      "latitude": 51.714079,
      "longitude": -5.608585,
      "updated_at": "2025-12-01T12:00:00Z"
    }
  },
  {
    "model": "stations.station",
    "pk": 288,
    "fields": {
      "name": "EasyGo Portlaoise Bypass",
      "station_type": "ev",
      "fuel_price": "0.00",
      "latitude": 54.450166,
      "longitude": -8.385417,
      "updated_at": "2025-12-01T12:00:00Z"
    }
  },
  {
    "model": "stations.station",
    "pk": 289,
    "fields": {
      "name": "Maxol Longford Link Road",
      "station_type": "petrol",
      "fuel_price": "1.76",
      "latitude": 53.566854,
      "longitude": -7.209244,
      "updated_at": "2025-12-01T12:00:00Z"
    }
  },
  {
    "model": "stations.station",
    "pk": 290,
    "fields": {
      "name": "Inver Mullingar Service Area",
      "station_type": "petrol",
      "fuel_price": "1.71",
      "latitude": 52.576761,
      "longitude": -10.179081,
      "updated_at": "2025-12-01T12:00:00Z"
    }
  },
  {
    "model": "stations.station",
    "pk": 291,
    "fields": {
      "name": "Maxol Naas Bypass",
      "station_type": "petrol",
      "fuel_price": "1.87",
      "latitude": 52.747368,
      "longitude": -9.810049,
      "updated_at": "2025-12-01T12:00:00Z"
    }
  },
  {
    "model": "stations.station",
    "pk": 292,
    "fields": {
      "name": "Inver Sligo Service Area",
      "station_type": "petrol",
      "fuel_price": "1.81",
      "latitude": 51.911757,
      "longitude": -8.62578,
      "updated_at": "2025-12-01T12:00:00Z"
    }
  },
  {
    "model": "stations.station",
    "pk": 293,
    "fields": {
      "name": "Maxol Galway Retail Park",
      "station_type": "petrol",
      "fuel_price": "1.71",
      "latitude": 53.183888,
      "longitude": -9.824619,
      "updated_at": "2025-12-01T12:00:00Z"
    }
  },
  {
    "model": "stations.station",
    "pk": 294,
    "fields": {
      "name": "Tesla Supercharger Bray Bypass",
      "station_type": "ev",
      "fuel_price": "0.00",
      "latitude": 54.635777,
      "longitude": -5.685817,
      "updated_at": "2025-12-01T12:00:00Z"
    }
  },
  {
    "model": "stations.station",
    "pk": 295,
    "fields": {
      "name": "Applegreen Arklow Bypass",
      "station_type": "petrol",
      "fuel_price": "1.80",
      "latitude": 53.37808,
      "longitude": -7.873136,
      "updated_at": "2025-12-01T12:00:00Z"
    }
  },
  {
    "model": "stations.station",
    "pk": 296,
    "fields": {
      "name": "Circle K Limerick Service Area",
      "station_type": "petrol",
      "fuel_price": "1.74",
      "latitude": 53.406723,
      "longitude": -5.513896,
      "updated_at": "2025-12-01T12:00:00Z"
    }
  },
  {
    "model": "stations.station",
    "pk": 297,
    "fields": {
      "name": "Circle K Ennis Service Area",
      "station_type": "petrol",
      "fuel_price": "1.83",
      "latitude": 53.7741,
      "longitude": -6.160325,
      "updated_at": "2025-12-01T12:00:00Z"
    }
  },
  {
    "model": "stations.station",
    "pk": 298,
    "fields": {
      "name": "Circle K Tullamore Road",
      "station_type": "petrol",
      "fuel_price": "1.85",
      "latitude": 53.109402,
      "longitude": -5.953581,
      "updated_at": "2025-12-01T12:00:00Z"
    }
  },
  {
    "model": "stations.station",
    "pk": 299,
    "fields": {
      "name": "EasyGo Cork Service Area",
      "station_type": "ev",
      "fuel_price": "0.00",
      "latitude": 51.594119,
      "longitude": -7.627316,
      "updated_at": "2025-12-01T12:00:00Z"
    }
  },
  {
    "model": "stations.station",
    "pk": 300,
    "fields": {
      "name": "Texaco Limerick Service Area",
      "station_type": "petrol",
      "fuel_price": "1.76",
      "latitude": 53.40198,
      "longitude": -6.569811,
      "updated_at": "2025-12-01T12:00:00Z"
    }
  },
  {
    "model": "stations.station",
    "pk": 301,
    "fields": {
      "name": "ESB EV Waterford Road",
      "station_type": "ev",
      "fuel_price": "0.00",
      "latitude": 52.961676,
      "longitude": -6.410636,
      "updated_at": "2025-12-01T12:00:00Z"
    }
  },
  {
    "model": "stations.station",
    "pk": 302,
    "fields": {
      "name": "Texaco Arklow Bypass",
      "station_type": "petrol",
      "fuel_price": "1.80",
      "latitude": 52.184241,
      "longitude": -7.90238,
      "updated_at": "2025-12-01T12:00:00Z"
    }
  },
  {
    "model": "stations.station",
    "pk": 303,
    "fields": {
      "name": "Applegreen Balbriggan Retail Park",
      "station_type": "petrol",
      "fuel_price": "1.73",
      "latitude": 54.597824,
      "longitude": -7.849083,
      "updated_at": "2025-12-01T12:00:00Z"
    }
  },
  {
    "model": "stations.station",
    "pk": 304,
    "fields": {
      "name": "IONITY Kilkenny Main Street",
      "station_type": "ev",
      "fuel_price": "0.00",
      "latitude": 52.660935,
      "longitude": -8.508777,
      "updated_at": "2025-12-01T12:00:00Z"
    }
  },
  {
    "model": "stations.station",
    "pk": 305,
    "fields": {
      "name": "Inver Ennis Main Street",
      "station_type": "petrol",
      "fuel_price": "1.81",
      "latitude": 52.73213,
      "longitude": -6.236329,
      "updated_at": "2025-12-01T12:00:00Z"
    }
  },
  {
    "model": "stations.station",
    "pk": 306,
    "fields": {
      "name": "Texaco Wexford Road",
      "station_type": "petrol",
      "fuel_price": "1.90",
      "latitude": 52.859748,
      "longitude": -7.042731,
      "updated_at": "2025-12-01T12:00:00Z"
    }
  },
  {
    "model": "stations.station",
    "pk": 307,
    "fields": {
      "name": "Inver Longford Link Road",
      "station_type": "petrol",
      "fuel_price": "1.82",
      "latitude": 54.869675,
      "longitude": -7.27526,
      "updated_at": "2025-12-01T12:00:00Z"
    }
  },
  {
    "model": "stations.station",
    "pk": 308,
    "fields": {
      "name": "Emo Cavan Main Street",
      "station_type": "petrol",
      "fuel_price": "1.82",
      "latitude": 53.694761,
      "longitude": -6.794291,
      "updated_at": "2025-12-01T12:00:00Z"
    }
  },
  {
    "model": "stations.station",
    "pk": 309,
    "fields": {
      "name": "Emo Castlebar Main Street",
      "station_type": "petrol",
      "fuel_price": "1.86",
      "latitude": 54.480678,
      "longitude": -8.575406,
      "updated_at": "2025-12-01T12:00:00Z"
    }
  },
  {
    "model": "stations.station",
    "pk": 310,
    "fields": {
      "name": "Top Oil Balbriggan Road",
      "station_type": "petrol",
      "fuel_price": "1.78",
      "latitude": 52.151229,
      "longitude": -8.257779,
      "updated_at": "2025-12-01T12:00:00Z"
    }
  },
  {
    "model": "stations.station",
    "pk": 311,
    "fields": {
      "name": "Applegreen Carlow Main Street",
      "station_type": "petrol",
      "fuel_price": "1.87",
      "latitude": 54.482139,
      "longitude": -5.754881,
      "updated_at": "2025-12-01T12:00:00Z"
    }
  },
  {
    "model": "stations.station",
    "pk": 312,
    "fields": {
      "name": "Circle K Balbriggan Bypass",
      "station_type": "petrol",
      "fuel_price": "1.90",
      "latitude": 53.459546,
      "longitude": -7.632171,
      "updated_at": "2025-12-01T12:00:00Z"
    }
  },
  {
    "model": "stations.station",
    "pk": 313,
    "fields": {
      "name": "Maxol Kilkenny Bypass",
      "station_type": "petrol",
      "fuel_price": "1.81",
      "latitude": 53.224057,
      "longitude": -7.777077,
      "updated_at": "2025-12-01T12:00:00Z"
    }
  },
  {
    "model": "stations.station",
    "pk": 314,
    "fields": {
      "name": "Inver Castlebar Link Road",
      "station_type": "petrol",
      "fuel_price": "1.82",
      "latitude": 53.956803,
      "longitude": -6.940905,
      "updated_at": "2025-12-01T12:00:00Z"
    }
  },
  {
    "model": "stations.station",
    "pk": 315,
    "fields": {
      "name": "Applegreen Navan Main Street",
      "station_type": "petrol",
      "fuel_price": "1.90",
      "latitude": 52.581012,
      "longitude": -5.645445,
      "updated_at": "2025-12-01T12:00:00Z"
    }
  },
  {
    "model": "stations.station",
    "pk": 316,
    "fields": {
      "name": "IONITY Balbriggan Link Road",
      "station_type": "ev",
      "fuel_price": "0.00",
      "latitude": 53.341122,
      "longitude": -8.055426,
      "updated_at": "2025-12-01T12:00:00Z"
    }
  },
  {
    "model": "stations.station",
    "pk": 317,
    "fields": {
      "name": "Inver Castlebar Retail Park",
      "station_type": "petrol",
      "fuel_price": "1.81",
      "latitude": 52.53828,
      "longitude": -7.566451,
      "updated_at": "2025-12-01T12:00:00Z"
    }
  },
  {
    "model": "stations.station",
    "pk": 318,
    "fields": {
      "name": "Tesla Supercharger Tuam Retail Park",
      "station_type": "ev",
      "fuel_price": "0.00",
      "latitude": 55.198889,
      "longitude": -6.359905,
      "updated_at": "2025-12-01T12:00:00Z"
    }
  },
  {
    "model": "stations.station",
    "pk": 319,
    "fields": {
      "name": "Texaco Balbriggan Road",
      "station_type": "petrol",
      "fuel_price": "1.75",
      "latitude": 52.77199,
      "longitude": -8.250797,
      "updated_at": "2025-12-01T12:00:00Z"
    }
  },
  {
    "model": "stations.station",
    "pk": 320,
    "fields": {
      "name": "Applegreen Tuam Main Street",
      "station_type": "petrol",
      "fuel_price": "1.75",
      "latitude": 52.47182,
      "longitude": -7.626266,
      "updated_at": "2025-12-01T12:00:00Z"
    }
  },
  {
    "model": "stations.station",
    "pk": 321,
    "fields": {
      "name": "Emo Clonmel Bypass",
      "station_type": "petrol",
      "fuel_price": "1.81",
      "latitude": 52.357408,
      "longitude": -7.063467,
      "updated_at": "2025-12-01T12:00:00Z"
    }
  },
  {
    "model": "stations.station",
    "pk": 322,
    "fields": {
      "name": "Circle K Galway Service Area",
      "station_type": "petrol",
      "fuel_price": "1.84",
      "latitude": 52.707872,
      "longitude": -8.094052,
      "updated_at": "2025-12-01T12:00:00Z"
    }
  },
  {
    "model": "stations.station",
    "pk": 323,
    "fields": {
      "name": "Top Oil Roscommon Bypass",
      "station_type": "petrol",
      "fuel_price": "1.88",
      "latitude": 53.013561,
      "longitude": -5.679132,
      "updated_at": "2025-12-01T12:00:00Z"
    }
  },
  {
    "model": "stations.station",
    "pk": 324,
    "fields": {
      "name": "Applegreen Arklow Retail Park",
      "station_type": "petrol",
      "fuel_price": "1.88",
      "latitude": 52.671459,
      "longitude": -7.188413,
      "updated_at": "2025-12-01T12:00:00Z"
    }
  },
  {
    "model": "stations.station",
    "pk": 325,
    "fields": {
      "name": "Top Oil Bray Main Street",
      "station_type": "petrol",
      "fuel_price": "1.71",
      "latitude": 54.337359,
      "longitude": -6.121261,
      "updated_at": "2025-12-01T12:00:00Z"
    }
  },
  {
    "model": "stations.station",
    "pk": 326,
    "fields": {
      "name": "Tesla Supercharger Longford Bypass",
      "station_type": "ev",
      "fuel_price": "0.00",
      "latitude": 55.116351,
      "longitude": -10.370306,
      "updated_at": "2025-12-01T12:00:00Z"
    }
  },
  {
    "model": "stations.station",
    "pk": 327,
    "fields": {
      "name": "Tesla Supercharger Drogheda Link Road",
      "station_type": "ev",
      "fuel_price": "0.00",
      "latitude": 55.228904,
      "longitude": -5.726073,
      "updated_at": "2025-12-01T12:00:00Z"
    }
  },
  {
    "model": "stations.station",
    "pk": 328,
    "fields": {
      "name": "ESB EV Ennis Main Street",
      "station_type": "ev",
      "fuel_price": "0.00",
      "latitude": 53.795104,
      "longitude": -5.713466,
      "updated_at": "2025-12-01T12:00:00Z"
    }
  },
  {
    "model": "stations.station",
    "pk": 329,
    "fields": {
      "name": "Maxol Portlaoise Main Street",
      "station_type": "petrol",
      "fuel_price": "1.73",
      "latitude": 53.482031,
      "longitude": -5.918063,
      "updated_at": "2025-12-01T12:00:00Z"
    }
  },
  {
    "model": "stations.station",
    "pk": 330,
    "fields": {
      "name": "Texaco Dundalk Road",
      "station_type": "petrol",
      "fuel_price": "1.83",
      "latitude": 52.70943,
      "longitude": -6.743558,
      "updated_at": "2025-12-01T12:00:00Z"
    }
  },
  {
    "model": "stations.station",
    "pk": 331,
    "fields": {
      "name": "Circle K Castlebar Retail Park",
      "station_type": "petrol",
      "fuel_price": "1.85",
      "latitude": 54.545163,
      "longitude": -7.596182,
      "updated_at": "2025-12-01T12:00:00Z"
    }
  },
  {
    "model": "stations.station",
    "pk": 332,
    "fields": {
      "name": "Inver Portlaoise Service Area",
      "station_type": "petrol",
      "fuel_price": "1.72",
      "latitude": 54.689689,
      "longitude": -7.870235,
      "updated_at": "2025-12-01T12:00:00Z"
    }
  },
  {
    "model": "stations.station",
    "pk": 333,
    "fields": {
      "name": "Applegreen Waterford Service Area",
      "station_type": "petrol",
      "fuel_price": "1.75",
      "latitude": 52.681171,
      "longitude": -9.265194,
      "updated_at": "2025-12-01T12:00:00Z"
    }
  },
  {
    "model": "stations.station",
    "pk": 334,
    "fields": {
      "name": "Inver Navan Retail Park",
      "station_type": "petrol",
      "fuel_price": "1.70",
      "latitude": 52.594764,
      "longitude": -6.786553,
      "updated_at": "2025-12-01T12:00:00Z"
    }
  },
  {
    "model": "stations.station",
    "pk": 335,
    "fields": {
      "name": "Emo Bray Road",
      "station_type": "petrol",
      "fuel_price": "1.73",
      "latitude": 54.054467,
      "longitude": -8.130638,
      "updated_at": "2025-12-01T12:00:00Z"
    }
  },
  {
    "model": "stations.station",
    "pk": 336,
    "fields": {
      "name": "Emo Arklow Retail Park",
      "station_type": "petrol",
      "fuel_price": "1.89",
      "latitude": 54.144259,
      "longitude": -7.225927,
      "updated_at": "2025-12-01T12:00:00Z"
    }
  },
  {
    "model": "stations.station",
    "pk": 337,
    "fields": {
      "name": "Applegreen Bray Bypass",
      "station_type": "petrol",
      "fuel_price": "1.90",
      "latitude": 53.297946,
      "longitude": -8.185011,
      "updated_at": "2025-12-01T12:00:00Z"
    }
  },
  {
    "model": "stations.station",
    "pk": 338,
    "fields": {
      "name": "Emo Letterkenny Service Area",
      "station_type": "petrol",
      "fuel_price": "1.87",
      "latitude": 54.411829,
      "longitude": -6.373586,
      "updated_at": "2025-12-01T12:00:00Z"
    }
  },
  {
    "model": "stations.station",
    "pk": 339,
    "fields": {
      "name": "ESB EV Athlone Service Area",
      "station_type": "ev",
      "fuel_price": "0.00",
      "latitude": 53.497411,
      "longitude": -8.671483,
      "updated_at": "2025-12-01T12:00:00Z"
    }
  },
  {
    "model": "stations.station",
    "pk": 340,
    "fields": {
      "name": "ESB EV Cork Main Street",
      "station_type": "ev",
      "fuel_price": "0.00",
      "latitude": 54.992524,
      "longitude": -9.504742,
      "updated_at": "2025-12-01T12:00:00Z"
    }
  },
  {
    "model": "stations.station",
    "pk": 341,
    "fields": {
      "name": "Applegreen Kilkenny Main Street",
      "station_type": "petrol",
      "fuel_price": "1.84",
      "latitude": 53.152944,
      "longitude": -7.008859,
      "updated_at": "2025-12-01T12:00:00Z"
    }
  },
  {
    "model": "stations.station",
    "pk": 342,
    "fields": {
      "name": "Top Oil Naas Road",
      "station_type": "petrol",
      "fuel_price": "1.79",
      "latitude": 53.199195,
      "longitude": -7.880846,
      "updated_at": "2025-12-01T12:00:00Z"
    }
  },
  {
    "model": "stations.station",
    "pk": 343,
    "fields": {
      "name": "Maxol Mullingar Retail Park",
      "station_type": "petrol",
      "fuel_price": "1.86",
      "latitude": 54.275888,
      "longitude": -8.493148,
      "updated_at": "2025-12-01T12:00:00Z"
    }
  },
  {
    "model": "stations.station",
    "pk": 344,
    "fields": {
      "name": "Top Oil Limerick Road",
      "station_type": "petrol",
      "fuel_price": "1.81",
      "latitude": 53.080553,
      "longitude": -6.903991,
      "updated_at": "2025-12-01T12:00:00Z"
    }
  },
  {
    "model": "stations.station",
    "pk": 345,
    "fields": {
      "name": "Circle K Roscommon Service Area",
      "station_type": "petrol",
      "fuel_price": "1.85",
      "latitude": 51.516622,
      "longitude": -8.425715,
      "updated_at": "2025-12-01T12:00:00Z"
    }
  },
  {
    "model": "stations.station",
    "pk": 346,
    "fields": {
      "name": "Tesla Supercharger Sligo Service Area",
      "station_type": "ev",
      "fuel_price": "0.00",
      "latitude": 53.179663,
      "longitude": -5.772659,
      "updated_at": "2025-12-01T12:00:00Z"
    }
  },
  {
    "model": "stations.station",
    "pk": 347,
    "fields": {
      "name": "Circle K Mullingar Link Road",
      "station_type": "petrol",
      "fuel_price": "1.87",
      "latitude": 54.879469,
      "longitude": -9.865793,
      "updated_at": "2025-12-01T12:00:00Z"
    }
  },
  {
    "model": "stations.station",
    "pk": 348,
    "fields": {
      "name": "Top Oil Tralee Main Street",
      "station_type": "petrol",
      "fuel_price": "1.87",
      "latitude": 51.898115,
      "longitude": -5.451059,
      "updated_at": "2025-12-01T12:00:00Z"
    }
  },
  {
    "model": "stations.station",
    "pk": 349,
    "fields": {
      "name": "EasyGo Naas Link Road",
      "station_type": "ev",
      "fuel_price": "0.00",
      "latitude": 54.259185,
      "longitude": -8.346052,
      "updated_at": "2025-12-01T12:00:00Z"
    }
  },
  {
    "model": "stations.station",
    "pk": 350,
    "fields": {
      "name": "Applegreen Bray Service Area",
      "station_type": "petrol",
      "fuel_price": "1.89",
      "latitude": 52.771177,
      "longitude": -9.121108,
      "updated_at": "2025-12-01T12:00:00Z"
    }
  },
  {
    "model": "stations.station",
    "pk": 351,
    "fields": {
      "name": "Circle K Cork Link Road",
      "station_type": "petrol",
      "fuel_price": "1.88",
      "latitude": 53.06277,
      "longitude": -6.561201,
      "updated_at": "2025-12-01T12:00:00Z"
    }
  },
  {
    "model": "stations.station",
    "pk": 352,
    "fields": {
      "name": "Applegreen Limerick Road",
      "station_type": "petrol",
      "fuel_price": "1.83",
      "latitude": 53.759837,
      "longitude": -8.229578,
      "updated_at": "2025-12-01T12:00:00Z"
    }
  },
  {
    "model": "stations.station",
    "pk": 353,
    "fields": {
      "name": "IONITY Castlebar Road",
      "station_type": "ev",
      "fuel_price": "0.00",
      "latitude": 52.995039,
      "longitude": -9.336749,
      "updated_at": "2025-12-01T12:00:00Z"
    }
  },
  {
    "model": "stations.station",
    "pk": 354,
    "fields": {
      "name": "Inver Arklow Road",
      "station_type": "petrol",
      "fuel_price": "1.75",
      "latitude": 51.949141,
      "longitude": -5.374016,
      "updated_at": "2025-12-01T12:00:00Z"
    }
  },